SALE TYPE,SOLD DATE,PROPERTY TYPE,ADDRESS,CITY,STATE,ZIP,PRICE,BEDS,BATHS,LOCATION,SQUARE FEET,LOT SIZE,YEAR BUILT,DAYS ON MARKET,$/SQUARE FEET,HOA/MONTH,STATUS,NEXT OPEN HOUSE START TIME,NEXT OPEN HOUSE END TIME,URL (SEE http://www.redfin.com/buy-a-home/comparative-market-analysis FOR INFO ON PRICING),SOURCE,MLS#,FAVORITE,INTERESTED,LATITUDE,LONGITUDE
PAST SALE,May-25-2018,Condo/Co-op,47 Lourdes Ave #2,Boston,MA,02130,635000,3,2.0,Jamaica Plain,1106,1106,2004,72,574,251,Sold,,,http://www.redfin.com/MA/Boston/47-Lourdes-Ave-02130/unit-2/home/9324709,MLS PIN,72307495,N,Y,42.3065002,-71.1032867
PAST SALE,June-22-2018,Multi-Family (2-4 Unit),1398 River St,Boston,MA,02136,1075000,9,3.0,Hyde Park's Fairmount,4308,6457,1910,44,250,,Sold,,,http://www.redfin.com/MA/Hyde-Park/1398-River-St-02136/home/9130296,MLS PIN,72324609,N,Y,42.2538898,-71.1287675
PAST SALE,July-24-2018,Condo/Co-op,70 Lincoln St Unit L616,Boston,MA,02111,660000,1,1.0,Boston,753,753,2006,12,876,467,Sold,,,http://www.redfin.com/MA/Boston/70-Lincoln-St-02111/unit-L616/home/12440001,MLS PIN,72335497,N,Y,42.351981,-71.0577947
PAST SALE,June-1-2018,Condo/Co-op,505 E 5th St #1,Boston,MA,02127,525000,2,1.0,Boston,606,606,1905,65,866,146,Sold,,,http://www.redfin.com/MA/Boston/505-E-5th-St-02127/unit-1/home/21717365,MLS PIN,72309697,N,Y,42.3336849,-71.0406236
PAST SALE,May-16-2018,Condo/Co-op,85 E India Row Unit 14G,Boston,MA,02110,935000,2,1.5,Boston,1213,1213,1972,81,771,890,Sold,,,http://www.redfin.com/MA/Boston/85-E-India-Row-02110/unit-14G/home/9261475,MLS PIN,72259167,N,Y,42.3581217,-71.0498232
PAST SALE,June-8-2018,Single Family Residential,59 Paragon Rd,Boston,MA,02132,470000,3,1.5,West Roxbury,1152,4020,1965,58,408,,Sold,,,http://www.redfin.com/MA/West-Roxbury/59-Paragon-Rd-02132/home/9219281,MLS PIN,72308585,N,Y,42.2688868,-71.1640449
PAST SALE,August-1-2018,Condo/Co-op,162 Brush Hill Rd #2,Milton,MA,02186,449000,4,2.0,Milton,2008,,1918,4,224,375,Sold,,,http://www.redfin.com/MA/Milton/162-Brush-Hill-Rd-02186/unit-2/home/145793981,MLS PIN,72333591,N,Y,42.2607628,-71.0993944
PAST SALE,June-12-2018,Condo/Co-op,47 Saint Botolph St #301,Boston,MA,02116,870000,2,2.0,Back Bay,1038,1038,1899,54,838,320,Sold,,,http://www.redfin.com/MA/Boston/47-St-Botolph-St-02116/unit-301/home/9306697,MLS PIN,72310262,N,Y,42.3463502,-71.0794031
PAST SALE,June-26-2018,Single Family Residential,9 Cypress St,Boston,MA,02132,510000,3,1.5,Boston,1176,5977,1940,40,434,,Sold,,,http://www.redfin.com/MA/West-Roxbury/9-Cypress-St-02132/home/9218152,MLS PIN,72319151,N,Y,42.2747669,-71.1675724
PAST SALE,July-27-2018,Condo/Co-op,57 Bartlett St #4,Boston,MA,02129,675000,2,1.0,Charlestown,730,,2001,9,925,233,Sold,,,http://www.redfin.com/MA/Boston/57-Bartlett-St-02129/unit-4/home/9310211,MLS PIN,72328478,N,Y,42.3783076,-71.0636353
PAST SALE,June-20-2018,Condo/Co-op,37 Fairmont St #3,Cambridge,MA,02139,748000,2,2.0,Cambridge,1019,,1930,46,734,250,Sold,,,http://www.redfin.com/MA/Boston/37-Fairmount-St-02124/unit-3/home/11604078,MLS PIN,72307352,N,Y,42.2810395,-71.0730369
PAST SALE,July-19-2018,Condo/Co-op,319 Allston St #6,Boston,MA,02135,390000,1,1.0,Brighton,557,557,1920,17,700,348,Sold,,,http://www.redfin.com/MA/Boston/319-Allston-St-02135/unit-6/home/9016805,MLS PIN,72340746,N,Y,42.3438074,-71.141894
PAST SALE,July-13-2018,Condo/Co-op,151 P St #1,Boston,MA,02127,1015000,4,3.0,South Boston,2162,2162,1926,23,469,265,Sold,,,http://www.redfin.com/MA/Boston/151-P-St-02127/unit-1/home/12296070,MLS PIN,72311811,N,Y,42.3329791,-71.0273475
PAST SALE,June-29-2018,Condo/Co-op,14 Royal St #2,Boston,MA,02134,915000,6,3.0,Allston,2320,,1900,37,394,250,Sold,,,http://www.redfin.com/MA/Boston/14-Royal-St-02134/unit-2/home/145670005,MLS PIN,72328977,N,Y,42.3572964,-71.1299744
PAST SALE,May-31-2018,Condo/Co-op,40 Saint Botolph St #27,Boston,MA,02116,535000,1,1.0,Back Bay,364,364,1925,66,1470,286,Sold,,,http://www.redfin.com/MA/Boston/40-Saint-Botolph-St-02116/unit-27/home/145984155,MLS PIN,72307251,N,Y,42.3462169,-71.0787937
PAST SALE,June-28-2018,Single Family Residential,19 Church St,Boston,MA,02136,470000,3,2.0,Hyde Park,1767,5663,1950,38,266,,Sold,,,http://www.redfin.com/MA/Hyde-Park/19-Church-St-02136/home/11835618,MLS PIN,72309944,N,Y,42.2492018,-71.1324811
PAST SALE,July-27-2018,Single Family Residential,3 Constance Rd,Boston,MA,02132,650000,4,3.5,West Roxbury,2503,2533,2001,9,260,,Sold,,,http://www.redfin.com/MA/West-Roxbury/3-Constance-Rd-02132/home/9315610,MLS PIN,72328581,N,Y,42.2761659,-71.1652981
PAST SALE,June-28-2018,Condo/Co-op,32 Parkton Rd #2,Boston,MA,02130,600000,3,1.0,Jamaica Plain,1080,1080,1905,38,556,230,Sold,,,http://www.redfin.com/MA/Jamaica-Plain/32-Parkton-Rd-02130/home/18982570,MLS PIN,72328781,N,Y,42.3223975,-71.1143308
PAST SALE,July-10-2018,Single Family Residential,87 White St,Boston,MA,02128,578000,3,2.0,Boston,1346,1750,1900,26,429,,Sold,,,http://www.redfin.com/MA/Boston/87-White-St-02128/home/11835442,MLS PIN,72333105,N,Y,42.380401,-71.0339675
PAST SALE,August-1-2018,Condo/Co-op,106 I St #1,Boston,MA,02127,501000,1,1.0,South Boston,694,,1900,4,722,200,Sold,,,http://www.redfin.com/MA/Boston/106-I-St-02127/unit-1/home/18983007,MLS PIN,72341017,N,Y,42.334396,-71.0397169
PAST SALE,July-5-2018,Condo/Co-op,150 Orleans St #306,Boston,MA,02128,489000,2,1.0,East Boston,948,948,1920,31,516,479,Sold,,,http://www.redfin.com/MA/Boston/150-Orleans-St-02128/unit-306/home/9107412,MLS PIN,72333194,N,Y,42.3702907,-71.0362555
PAST SALE,June-1-2018,Townhouse,181 Geneva Ave #181,Boston,MA,02121,460000,3,2.0,Boston,1410,,2016,65,326,225,Sold,,,http://www.redfin.com/MA/Boston/181-Geneva-Ave-02121/unit-181/home/145334214,MLS PIN,72296204,N,Y,42.3049022,-71.076433
PAST SALE,May-24-2018,Condo/Co-op,77 Pearl St #1,Boston,MA,02129,489000,1,1.0,Charlestown,580,,1875,73,843,100,Sold,,,http://www.redfin.com/MA/Boston/77-Pearl-St-02129/unit-1/home/12431272,MLS PIN,72302849,N,Y,42.3801055,-71.0628828
PAST SALE,May-31-2018,Condo/Co-op,8 Hallam St #2,Boston,MA,02125,490000,2,1.0,Dorchester's Savin Hill,882,826,1905,66,556,250,Sold,,,http://www.redfin.com/MA/Boston/8-Hallam-St-02125/unit-2/home/12431050,MLS PIN,72292632,N,Y,42.3144727,-71.0563007
PAST SALE,July-31-2018,Condo/Co-op,31 Mendelssohn St #2,Boston,MA,02131,410000,2,1.0,Roslindale,950,950,1930,5,432,125,Sold,,,http://www.redfin.com/MA/Boston/31-Mendelssohn-St-02131/unit-2/home/21717192,MLS PIN,72345429,N,Y,42.2786398,-71.1386695
PAST SALE,July-9-2018,Condo/Co-op,24 Merriam St #1,Boston,MA,02130,650000,2,2.0,Jamaica Plain,1209,1209,2003,27,538,191,Sold,,,http://www.redfin.com/MA/Boston/24-Merriam-St-02130/unit-1/home/9320091,MLS PIN,72310891,N,Y,42.3137605,-71.104152
PAST SALE,June-8-2018,Townhouse,607 Bennington St #1,Boston,MA,02128,419000,2,1.0,East Boston,687,,1900,58,610,221,Sold,,,http://www.redfin.com/MA/Boston/607-Bennington-St-02128/unit-1/home/80170252,MLS PIN,72319277,N,Y,42.3829056,-71.0167988
PAST SALE,July-26-2018,Condo/Co-op,566 Commonwealth Ave #1105,Boston,MA,02215,475000,1,1.0,Back Bay,789,24108,1968,10,602,1290,Sold,,,http://www.redfin.com/MA/Boston/566-Commonwealth-Ave-02215/unit-1105/home/39959258,MLS PIN,72302734,N,Y,42.3487227,-71.0988578
PAST SALE,July-18-2018,Condo/Co-op,55 Middle St #3,Boston,MA,02127,635000,2,1.0,South Boston,932,932,1900,18,681,132,Sold,,,http://www.redfin.com/MA/Boston/55-Middle-St-02127/unit-3/home/39895235,MLS PIN,72349806,N,Y,42.332143,-71.0559267
PAST SALE,July-31-2018,Single Family Residential,43 Charles St,Boston,MA,02136,430000,5,1.5,Hyde Park,2146,6384,1880,5,200,,Sold,,,http://www.redfin.com/MA/Hyde-Park/43-Charles-St-02136/home/9131537,MLS PIN,72318446,N,Y,42.2499256,-71.1334559
PAST SALE,May-24-2018,Condo/Co-op,141 Worcester St #1,Boston,MA,02118,1525000,2,2.5,Boston,1384,1384,1899,73,1102,342,Sold,,,http://www.redfin.com/MA/Boston/141-Worcester-St-02118/unit-1/home/21717612,MLS PIN,72290643,N,Y,42.3411893,-71.0795367
PAST SALE,July-9-2018,Condo/Co-op,2 Clarendon St #209,Boston,MA,02116,1050000,2,1.5,South End,968,968,1988,27,1085,908,Sold,,,http://www.redfin.com/MA/Boston/2-Clarendon-St-02116/unit-209/home/9232913,MLS PIN,72335671,N,Y,42.3442321,-71.072412
PAST SALE,July-31-2018,Multi-Family (2-4 Unit),15 Brenton St,Boston,MA,02121,780000,6,4.5,Dorchester,4525,4547,2005,5,172,,Sold,,,http://www.redfin.com/MA/Boston/15-Brenton-St-02121/home/17219105,MLS PIN,72340428,N,Y,42.2975181,-71.0799775
PAST SALE,June-7-2018,Single Family Residential,518 Hyde Park Ave,Boston,MA,02131,425000,3,1.5,Roslindale,900,2055,1900,59,472,,Sold,,,http://www.redfin.com/MA/Roslindale/518-Hyde-Park-Ave-02131/home/9181773,MLS PIN,72283625,N,Y,42.2827368,-71.1187059
PAST SALE,June-28-2018,Condo/Co-op,62 Patten St #2,Boston,MA,02130,715000,3,3.0,Jamaica Plain,1600,,1920,38,447,250,Sold,,,http://www.redfin.com/MA/Boston/62-Patten-St-02130/unit-2/home/145485134,MLS PIN,72314288,N,Y,42.2934236,-71.1146093
PAST SALE,July-2-2018,Condo/Co-op,41 Wenham St #2,Boston,MA,02130,740000,3,2.0,Jamaica Plain,1429,7380,2018,34,518,200,Sold,,,http://www.redfin.com/MA/Boston/41-Wenham-St-02130/unit-2/home/145550528,MLS PIN,72319496,N,Y,42.2964003,-71.1141915
PAST SALE,July-3-2018,Condo/Co-op,41 Wenham St #1,Boston,MA,02130,754000,3,2.0,Jamaica Plain,1336,7380,2018,33,564,200,Sold,,,http://www.redfin.com/MA/Boston/41-Wenham-St-02130/unit-1/home/145183384,MLS PIN,72295943,N,Y,42.2964003,-71.1141915
PAST SALE,July-6-2018,Single Family Residential,125 Wood Ave,Boston,MA,02136,620000,4,3.5,Hyde Park,2500,6402,2015,30,248,,Sold,,,http://www.redfin.com/MA/Boston/125-Wood-Ave-02126/home/145634493,MLS PIN,72328955,N,Y,42.270525,-71.1104006
PAST SALE,June-11-2018,Single Family Residential,67 Eastland Rd,Boston,MA,02130,555000,3,1.0,Jamaica Plain,1224,4245,1938,55,453,,Sold,,,http://www.redfin.com/MA/Boston/67-Eastland-Rd-02130/home/9152236,MLS PIN,72323310,N,Y,42.2895912,-71.1134952
PAST SALE,July-9-2018,Condo/Co-op,242 POPLAR St #3,Boston,MA,02131,550000,2,2.0,Roslindale,1099,9077,1905,27,500,238,Sold,,,http://www.redfin.com/MA/Boston/242-Poplar-St-02131/unit-3/home/145604145,MLS PIN,72324805,N,Y,42.2810967,-71.1259282
PAST SALE,July-18-2018,Townhouse,66 Catherine St #66,Boston,MA,02131,680000,3,2.5,Roslindale,1657,7569,2013,18,410,175,Sold,,,http://www.redfin.com/MA/Boston/66-Catherine-St-02131/unit-66/home/52344117,MLS PIN,72296869,N,Y,42.2884021,-71.1155949
PAST SALE,June-27-2018,Condo/Co-op,52 Patten St #1,Boston,MA,02130,488000,2,1.0,Jamaica Plain,931,4110,1920,39,524,235,Sold,,,http://www.redfin.com/MA/Boston/52-Patten-St-02130/unit-1/home/9315281,MLS PIN,72318697,N,Y,42.2937412,-71.1150869
PAST SALE,,Condo/Co-op,178 Hyde Park Ave #3,Boston,MA,02130,475000,3,2.0,,806,,1899,,589,,,,,http://www.redfin.com/MA/Boston/178-Hyde-Park-Ave-02130/unit-3/home/12441528,,,N,Y,42.2949174,-71.116484
PAST SALE,June-28-2018,Condo/Co-op,20 Seymour St #1,Boston,MA,02131,430000,2,1.0,Roslindale,1035,1143,1905,38,415,240,Sold,,,http://www.redfin.com/MA/Boston/20-Seymour-St-02131/unit-1/home/21718711,MLS PIN,72323023,N,Y,42.2805438,-71.122783
PAST SALE,July-20-2018,Condo/Co-op,41 Wenham St #3,Boston,MA,02130,769000,3,2.0,Jamaica Plain,1481,7380,2018,16,519,200,Sold,,,http://www.redfin.com/MA/Boston/41-Wenham-St-02130/unit-3/home/146089867,MLS PIN,72351678,N,Y,42.2964003,-71.1141915
PAST SALE,July-18-2018,Condo/Co-op,52 Weld Hill St #2,Boston,MA,02131,515000,3,1.0,Jamaica Plain's Forest Hills,1128,3500,1896,18,457,150,Sold,,,http://www.redfin.com/MA/Boston/52-Weld-Hill-St-02130/unit-2/home/109543701,MLS PIN,72328568,N,Y,42.2979479,-71.1121489
PAST SALE,July-30-2018,Condo/Co-op,242 POPLAR St #1,Boston,MA,02131,516000,2,2.0,Roslindale,1003,9077,1905,6,514,230,Sold,,,http://www.redfin.com/MA/Boston/242-Poplar-St-02131/unit-1/home/145604143,MLS PIN,72324788,N,Y,42.2810967,-71.1259282
PAST SALE,July-30-2018,Condo/Co-op,242 POPLAR St #2,Boston,MA,02131,527000,2,2.0,Roslindale,1009,9077,1905,6,522,234,Sold,,,http://www.redfin.com/MA/Boston/242-Poplar-St-02131/unit-2/home/145604144,MLS PIN,72324802,N,Y,42.2810967,-71.1259282
PAST SALE,July-30-2018,Single Family Residential,92 Windham Rd,Boston,MA,02136,382500,2,1.0,Golf Course NHBD /Roslindale Line,864,5027,1960,6,443,,Sold,,,http://www.redfin.com/MA/Hyde-Park/92-Windham-Rd-02136/home/9124960,MLS PIN,72341991,N,Y,42.269304,-71.1251468
PAST SALE,July-26-2018,Single Family Residential,197 Wachusett St,Boston,MA,02130,610000,4,2.0,Jamaica Plain,1575,4000,1920,10,387,,Sold,,,http://www.redfin.com/MA/Boston/197-Wachusett-St-02130/home/9152091,MLS PIN,72333261,N,Y,42.2928152,-71.1169303
PAST SALE,July-31-2018,Condo/Co-op,40 Catherine St #1,Boston,MA,02131,520000,2,2.0,Jamaica Plain,902,,1910,5,576,173,Sold,,,http://www.redfin.com/MA/Boston/40-Catherine-St-02131/unit-1/home/59919621,MLS PIN,72341263,N,Y,42.2883785,-71.1150215
PAST SALE,July-31-2018,Multi-Family (2-4 Unit),144 Cummins Hwy,Boston,MA,02131,800000,6,3.0,Roslindale,3948,6316,1905,5,203,,Sold,,,http://www.redfin.com/MA/Roslindale/144-Cummins-Hwy-02131/home/9179903,MLS PIN,72305062,N,Y,42.2828541,-71.1235474
PAST SALE,July-13-2018,Single Family Residential,271 Wachusett St,Boston,MA,02130,770000,3,1.5,Sought-After Woodbourne Neighborhood,1584,4020,1915,23,486,,Sold,,,http://www.redfin.com/MA/Boston/271-Wachusett-St-02130/home/9152580,MLS PIN,72334592,N,Y,42.2901509,-71.1173829
PAST SALE,July-11-2018,Condo/Co-op,37 Wachusett St #2,Boston,MA,02130,480000,2,1.0,Jamaica Plain,893,893,1905,25,538,250,Sold,,,http://www.redfin.com/MA/Boston/37-Wachusett-St-02130/unit-2/home/9323647,MLS PIN,72323239,N,Y,42.2966038,-71.1132283
PAST SALE,July-11-2018,Single Family Residential,14 Bradlee Ct,Boston,MA,02136,441550,3,1.5,Hyde Park,1265,4191,1963,25,349,,Sold,,,http://www.redfin.com/MA/Hyde-Park/14-Bradlee-Ct-02136/home/9122494,MLS PIN,72315487,N,Y,42.2700758,-71.1167911
PAST SALE,July-2-2018,Townhouse,55 Wachusett St #2,Boston,MA,02130,880800,3,2.5,Jamaica Plain's Forest Hills,1939,,2015,34,454,250,Sold,,,http://www.redfin.com/MA/Boston/55-Wachusett-St-02130/unit-2/home/114037145,MLS PIN,72290514,N,Y,42.296114,-71.113551
PAST SALE,July-31-2018,Single Family Residential,20 Maynard Pl,Cambridge,MA,02138,1375000,3,2.5,Cambridge,1496,2579,1853,5,919,,Sold,,,http://www.redfin.com/MA/Cambridge/20-Maynard-Pl-02138/home/11587801,MLS PIN,72345466,N,Y,42.3756114,-71.13175
PAST SALE,August-2-2018,Condo/Co-op,975 Memorial Dr #510,Cambridge,MA,02138,6750000,2,2.5,Harvard Square,2748,,1986,3,2456,3169,Sold,,,http://www.redfin.com/MA/Cambridge/975-Memorial-Dr-02138/unit-510/home/11574803,MLS PIN,72303207,N,Y,42.3716982,-71.1236136
PAST SALE,May-23-2018,Condo/Co-op,107 South St Unit 3A,Boston,MA,02111,1270000,2,2.0,Leather District,1914,,1896,74,664,481,Sold,,,http://www.redfin.com/MA/Boston/107-South-St-02111/unit-3A/home/16871610,MLS PIN,72268196,N,Y,42.3514569,-71.0575146
PAST SALE,May-7-2018,Condo/Co-op,85 E India Row Unit 33H,Boston,MA,02110,695000,1,1.0,Waterfront,880,880,1972,90,790,911,Sold,,,http://www.redfin.com/MA/Boston/85-E-India-Row-02110/unit-33H/home/9261821,MLS PIN,72288874,N,Y,42.3581217,-71.0498232
PAST SALE,,Condo/Co-op,85 E India Row Apt 40F,Boston,MA,02110,2870000,1,1.5,,1209,,1972,,2374,,,,,http://www.redfin.com/MA/Boston/85-E-India-Row-02110/unit-40F/home/9261948,,,N,Y,42.3581217,-71.0498232
PAST SALE,May-17-2018,Condo/Co-op,500 Atlantic Ave Unit 15D,Boston,MA,02210,1340000,1,2.0,Waterfront,1310,,2006,80,1023,1269,Sold,,,http://www.redfin.com/MA/Boston/500-Atlantic-Ave-02210/unit-15D/home/12439639,MLS PIN,72269622,N,Y,42.3539101,-71.0518955
PAST SALE,,Condo/Co-op,500 Atlantic Ave Unit 14J,Boston,MA,02210,1650000,2,2.5,,1484,,2006,,1112,,,,,http://www.redfin.com/MA/Boston/500-Atlantic-Ave-02210/unit-14J/home/12439733,,,N,Y,42.3539101,-71.0518955
PAST SALE,June-25-2018,Condo/Co-op,249 A St #59,Boston,MA,02210,1000000,2,2.0,Seaport District,2235,,1900,41,447,1516,Sold,,,http://www.redfin.com/MA/Boston/249-A-St-02210/unit-59/home/113013260,MLS PIN,72115490,N,Y,42.3472031,-71.0506589
PAST SALE,June-15-2018,Condo/Co-op,99-105 Broad Unit 6F,Boston,MA,02110,529000,1,1.0,Waterfront,566,,1910,51,935,421,Sold,,,http://www.redfin.com/MA/Boston/105-Broad-St-02110/unit-6F/home/145306901,MLS PIN,72307660,N,Y,42.3572072,-71.0524202
PAST SALE,June-29-2018,Condo/Co-op,42 Chauncy Unit 5C,Boston,MA,02111,622500,1,1.0,Midtown,838,,1890,37,743,339,Sold,,,http://www.redfin.com/MA/Boston/42-Chauncy-St-02111/unit-5C/home/138312375,MLS PIN,72312208,N,Y,42.3537346,-71.0598086
PAST SALE,,Condo/Co-op,85 E India Row Apt 21E,Boston,MA,02110,725000,1,1.0,,856,,1972,,847,,,,,http://www.redfin.com/MA/Boston/85-E-India-Row-02110/unit-21E/home/9261604,,,N,Y,42.3581217,-71.0498232
PAST SALE,,Condo/Co-op,99 Broad St Unit 6F,Boston,MA,02110,529000,0,1.0,,566,,1910,,935,,,,,http://www.redfin.com/MA/Boston/99-Broad-St-02110/unit-6F/home/39912464,,,N,Y,42.3572672,-71.0526084
PAST SALE,July-13-2018,Condo/Co-op,42-48 Chauncy St Unit 5A,Boston,MA,02111,690000,1,1.0,Midtown,874,874,1899,23,789,325,Sold,,,http://www.redfin.com/MA/Boston/42-48-Chauncy-St-02111/unit-5A/home/145976653,MLS PIN,72338972,N,Y,42.3537238,-71.0598052
PAST SALE,,Condo/Co-op,1 Franklin St Unit 4104,Boston,MA,02108,4365000,3,3.0,,2096,,2016,,2083,,,,,http://www.redfin.com/MA/Boston/1-Franklin-St-02108/unit-4104/home/108528743,,,N,Y,42.35631,-71.05945
PAST SALE,June-18-2018,Condo/Co-op,346 Congress St #316,Boston,MA,02210,769000,1,1.0,Seaport District,784,784,1899,48,981,596,Sold,,,http://www.redfin.com/MA/Boston/346-Congress-St-02210/unit-316/home/21963260,MLS PIN,72301900,N,Y,42.3506856,-71.0486803
PAST SALE,May-15-2018,Condo/Co-op,20 Rowes Wharf #306,Boston,MA,02110,2300000,2,2.0,Waterfront,1456,,1988,82,1580,2623,Sold,,,http://www.redfin.com/MA/Boston/20-Rowes-Wharf-02110/unit-306/home/9229848,MLS PIN,72300513,N,Y,42.3566639,-71.0497268
PAST SALE,June-28-2018,Condo/Co-op,50 Liberty Dr Unit 12C,Boston,MA,02210,3669000,2,2.5,Seaport District,1807,,2018,38,2030,2386,Sold,,,http://www.redfin.com/MA/Boston/50-Liberty-Dr-02210/unit-12C/home/145350245,MLS PIN,72310899,N,Y,42.3542528,-71.0444578
PAST SALE,,Condo/Co-op,85 E India Row Apt 4A,Boston,MA,02110,2200000,1,1.0,,756,,1972,,2910,,,,,http://www.redfin.com/MA/Boston/85-E-India-Row-02110/unit-4A/home/9045891,,,N,Y,42.3581217,-71.0498232
PAST SALE,,Condo/Co-op,25 Channel Center St Unit 1103,Boston,MA,02210,1362000,2,2.0,,1510,,2006,,902,,,,,http://www.redfin.com/MA/Boston/25-Channel-Center-St-02210/unit-1103/home/21719584,,,N,Y,42.3460654,-71.0507949
PAST SALE,June-28-2018,Condo/Co-op,80 Broad St #309,Boston,MA,02110,585000,1,1.0,Waterfront,695,695,2006,38,842,569,Sold,,,http://www.redfin.com/MA/Boston/80-Broad-St-02110/unit-309/home/12439920,MLS PIN,72291541,N,Y,42.35771,-71.0528312
PAST SALE,June-1-2018,Condo/Co-op,21 Wormwood St #516,Boston,MA,02210,945000,1,1.0,Seaport District,1124,1124,1900,65,841,322,Sold,,,http://www.redfin.com/MA/Boston/21-Wormwood-St-02210/unit-516/home/11837433,MLS PIN,72302078,N,Y,42.3469839,-71.0502336
PAST SALE,July-25-2018,Townhouse,10 Constellation Wharf #10,Boston,MA,02129,1491000,3,3.5,Waterfront,2492,,1987,11,598,1978,Sold,,,http://www.redfin.com/MA/Boston/10-Constellation-Wharf-02129/unit-10/home/145121598,MLS PIN,72238708,N,Y,42.3747677,-71.0505404
PAST SALE,July-27-2018,Condo/Co-op,50 Liberty Dr Ph 1G,Boston,MA,02210,1360000,1,1.5,Seaport District,1016,,2018,9,1339,614,Sold,,,http://www.redfin.com/MA/Boston/50-Liberty-Dr-02210/unit-1G/home/145280877,MLS PIN,72304731,N,Y,42.3542528,-71.0444578
PAST SALE,July-27-2018,Condo/Co-op,500 Atlantic Ave Unit 14D,Boston,MA,02210,1500000,2,2.0,Waterfront,1414,,2006,9,1061,1346,Sold,,,http://www.redfin.com/MA/Boston/500-Atlantic-Ave-02210/unit-14D/home/12440061,MLS PIN,72271003,N,Y,42.3539101,-71.0518955
PAST SALE,July-25-2018,Condo/Co-op,99-105 Broad St Unit 8C,Boston,MA,02110,1400000,2,2.0,Waterfront,1354,,1859,11,1034,938,Sold,,,http://www.redfin.com/MA/Boston/99-Broad-St-02110/unit-8C/home/39877940,MLS PIN,72327953,N,Y,42.3572672,-71.0526084
PAST SALE,July-31-2018,Condo/Co-op,40 Commercial Wharf #40,Boston,MA,02210,1350000,1,1.5,Waterfront,1123,,1832,5,1202,652,Sold,,,http://www.redfin.com/MA/Boston/40-Commercial-Wharf-02110/unit-40/home/40631089,MLS PIN,72333692,N,Y,42.3622693,-71.0506564
PAST SALE,August-1-2018,Condo/Co-op,50 Liberty Unit 10B,Boston,MA,02210,6800000,3,3.5,Seaport District,2788,,2018,4,2439,3880,Sold,,,http://www.redfin.com/MA/Boston/50-Liberty-Dr-02210/unit-10B/home/145553149,MLS PIN,72320238,N,Y,42.3542528,-71.0444578
PAST SALE,July-31-2018,Condo/Co-op,197 Eighth St #620,Boston,MA,02129,866000,2,2.0,Charlestown's Navy Yard,1144,,1989,5,757,594,Sold,,,http://www.redfin.com/MA/Boston/197-8th-St-02129/unit-620/home/9050227,MLS PIN,72334449,N,Y,42.3733848,-71.0519798
PAST SALE,July-16-2018,Condo/Co-op,357 Commercial St #613,Boston,MA,02109,519000,1,1.0,Waterfront,724,,1900,20,717,325,Sold,,,http://www.redfin.com/MA/Boston/357-Commercial-St-02109/unit-613/home/9230484,MLS PIN,72335490,N,Y,42.3661069,-71.0505699
PAST SALE,July-31-2018,Condo/Co-op,300 Commercial St #902,Boston,MA,02109,2700000,2,2.0,Waterfront,1609,1609,1900,5,1678,2555,Sold,,,http://www.redfin.com/MA/Boston/300-Commercial-St-02109/unit-902/home/9231688,MLS PIN,72348787,N,Y,42.3651152,-71.0514577
PAST SALE,July-26-2018,Condo/Co-op,33 Sleeper St #308,Boston,MA,02210,1100000,2,1.0,Seaport District,1328,1328,1911,10,828,563,Sold,,,http://www.redfin.com/MA/Boston/33-Sleeper-St-02210/unit-308/home/9252824,MLS PIN,72314320,N,Y,42.3519914,-71.0488968
PAST SALE,July-25-2018,Condo/Co-op,42 8Th St #3110,Boston,MA,02129,655000,2,2.0,Charlestown's Navy Yard,939,,1899,11,698,707,Sold,,,http://www.redfin.com/MA/Boston/42-8th-St-02129/unit-3110/home/9328169,MLS PIN,72305610,N,Y,42.3749988,-71.0520878
PAST SALE,July-31-2018,Condo/Co-op,100 Lovejoy Pl Unit 7J,Boston,MA,02114,1700000,2,2.0,Waterfront,1301,,2017,5,1307,1711,Sold,,,http://www.redfin.com/MA/Boston/100-Lovejoy-Pl-02114/unit-7J/home/146207574,MLS PIN,72360367,N,Y,42.3672009,-71.0590324
PAST SALE,July-16-2018,Condo/Co-op,35 Channel Center St #206,Boston,MA,02210,1145000,1,1.0,Seaport District,1462,,2006,20,783,550,Sold,,,http://www.redfin.com/MA/Boston/35-Channel-Center-St-02210/unit-206/home/11737323,MLS PIN,72313858,N,Y,42.3463778,-71.0505535
PAST SALE,July-17-2018,Condo/Co-op,80 Broad St #904,Boston,MA,02110,975000,2,2.0,Waterfront,1282,1282,2006,19,761,1285,Sold,,,http://www.redfin.com/MA/Boston/80-Broad-St-02110/unit-904/home/12439667,MLS PIN,72253893,N,Y,42.35771,-71.0528312
PAST SALE,May-24-2018,Condo/Co-op,137-139 Pearl St #1,Boston,MA,02110,880000,1,1.5,Waterfront,1201,,1900,73,733,333,Sold,,,http://www.redfin.com/MA/Boston/137-Pearl-St-02110/unit-1/home/39935533,MLS PIN,72281927,N,Y,42.3546783,-71.0537909
PAST SALE,,Condo/Co-op,42 Chauncy St Apt 5C,Boston,MA,02111,622500,1,1.0,,838,,1899,,743,,,,,http://www.redfin.com/MA/Boston/42-Chauncy-St-02111/unit-5C/home/9313764,,,N,Y,42.353755,-71.059782
PAST SALE,July-31-2018,Condo/Co-op,23 Fleet St #4,Boston,MA,02113,499000,1,1.0,North End,470,,1907,5,1062,188,Sold,,,http://www.redfin.com/MA/Boston/23-Fleet-St-02113/unit-4/home/9269613,MLS PIN,72339986,N,Y,42.3643581,-71.0528069
PAST SALE,June-27-2018,Condo/Co-op,9 Monastery Rd #1,Boston,MA,02135,410000,2,1.0,Brighton,792,792,1955,39,518,145,Sold,,,http://www.redfin.com/MA/Boston/9-Monastery-Rd-02135/unit-1/home/21718601,MLS PIN,72329162,N,Y,42.345781,-71.1470381
PAST SALE,,Townhouse,120 Foster Ter,Boston,MA,02135,525000,3,2.0,,1266,1266,2006,,415,,,,,http://www.redfin.com/MA/Boston/120-Foster-Ter-02135/home/21621781,,,N,Y,42.3471101,-71.1573919
PAST SALE,,Multi-Family (2-4 Unit),190 Washington St Unit R,Brighton,MA,02135,900000,4,3.0,,4717,10389,1900,,191,,,,,http://www.redfin.com/MA/Brighton/190-Washington-St-02135/unit-R/home/9008742,,,N,Y,42.3463562,-71.1475206
PAST SALE,,Single Family Residential,8 Glenmont Rd,Brighton,MA,02135,475000,5,1.5,,2519,3592,1900,,189,,,,,http://www.redfin.com/MA/Brighton/8-Glenmont-Rd-02135/home/9038761,,,N,Y,42.345823,-71.158493
PAST SALE,,Condo/Co-op,38 Lake Shore Ter Apt 4,Brighton,MA,02135,500000,3,2.0,,1058,,1963,,473,,,,,http://www.redfin.com/MA/Brighton/38-Lake-Shore-Ter-02135/unit-4/home/9044618,,,N,Y,42.3442692,-71.1671795
PAST SALE,June-26-2018,Condo/Co-op,63 Parsons St #2,Boston,MA,02135,810000,4,2.0,Brighton,2183,6068,1920,40,371,205,Sold,,,http://www.redfin.com/MA/Boston/63-Parsons-St-02135/unit-2/home/9324825,MLS PIN,72311611,N,Y,42.3520312,-71.1543215
PAST SALE,,Multi-Family (2-4 Unit),73 Verndale St,Brookline,MA,02446,1965000,7,5.0,,4271,5537,1930,,460,,,,,http://www.redfin.com/MA/Brookline/73-Verndale-St-02446/home/11449955,,,N,Y,42.3471136,-71.1324946
PAST SALE,June-1-2018,Condo/Co-op,15 N Beacon St #914,Boston,MA,02134,625000,2,1.5,Allston,922,922,1989,65,678,711,Sold,,,http://www.redfin.com/MA/Boston/15-N-Beacon-St-02134/unit-914/home/8988635,MLS PIN,72307941,N,Y,42.3538162,-71.1380593
PAST SALE,May-31-2018,Condo/Co-op,1267 Commonwealth Ave #7,Boston,MA,02134,460000,2,1.0,Brighton,779,,1910,66,591,304,Sold,,,http://www.redfin.com/MA/Boston/1267-Commonwealth-Ave-02134/unit-7/home/8995542,MLS PIN,72314052,N,Y,42.3498733,-71.1329671
PAST SALE,May-30-2018,Condo/Co-op,149 Lake Shore Rd #1,Boston,MA,02465,478933,2,1.0,Brighton's Chestnut Hill,825,,1963,67,581,443,Sold,,,http://www.redfin.com/MA/Boston/149-Lake-Shore-Rd-02135/unit-149-1/home/9043399,MLS PIN,72307129,N,Y,42.3442692,-71.1671795
PAST SALE,,Condo/Co-op,166 Fuller St #3,Brookline,MA,02446,629000,3,1.0,,1386,,1915,,454,,,,,http://www.redfin.com/MA/Brookline/166-Fuller-St-02446/unit-3/home/11448965,,,N,Y,42.3491186,-71.1250682
PAST SALE,May-29-2018,Condo/Co-op,10 Lanark Rd #1,Brookline,MA,02445,700000,2,1.0,Brookline,1054,,1930,68,664,542,Sold,,,http://www.redfin.com/MA/Brookline/10-Lanark-Rd-02445/unit-1/home/11456835,MLS PIN,72278860,N,Y,42.3383728,-71.1463664
PAST SALE,July-20-2018,Condo/Co-op,1650 Commonwealth #603,Boston,MA,02135,1025000,2,2.0,Brighton,1070,,2017,16,958,667,Sold,,,http://www.redfin.com/MA/Boston/1650-Commonwealth-Ave-02135/unit-603/home/146090930,MLS PIN,72351795,N,Y,42.3417583,-71.1436661
PAST SALE,July-18-2018,Single Family Residential,195-197 Babcock St #3,Brookline,MA,02446,1567000,4,3.0,Coolidge Corner,1744,10018,2017,18,899,200,Sold,,,http://www.redfin.com/MA/Brookline/197-Babcock-St-02446/unit-3/home/102581302,MLS PIN,72297462,N,Y,42.3499502,-71.1210618
PAST SALE,July-24-2018,Single Family Residential,76 Turner St,Boston,MA,02135,710000,3,2.0,between Oak Sq. and Faneuil Sq.,1392,4183,1915,12,510,,Sold,,,http://www.redfin.com/MA/Brighton/76-Turner-St-02135/home/9034783,MLS PIN,72338539,N,Y,42.3517824,-71.1621883
PAST SALE,July-28-2018,Condo/Co-op,1650 Commonwealth #208,Boston,MA,02135,710000,1,1.0,Brighton,792,,2017,8,896,485,Sold,,,http://www.redfin.com/MA/Boston/1650-Commonwealth-Ave-02135/unit-208/home/144236595,MLS PIN,72251421,N,Y,42.3418247,-71.1436113
PAST SALE,July-27-2018,Condo/Co-op,1650 Commonwealth #303,Boston,MA,02135,899000,2,2.0,Brighton,1063,,2017,9,846,667,Sold,,,http://www.redfin.com/MA/Boston/1650-Commonwealth-Ave-02135/unit-303/home/144236605,MLS PIN,72251433,N,Y,42.3418247,-71.1436113
PAST SALE,July-31-2018,Condo/Co-op,19 Verndale St #1,Brookline,MA,02446,1420000,4,3.0,Brookline,1950,,1905,5,728,318,Sold,,,http://www.redfin.com/MA/Brookline/19-Verndale-St-02446/unit-1/home/145876138,MLS PIN,72335334,N,Y,42.3482122,-71.130485
PAST SALE,July-30-2018,Single Family Residential,6 Peaceable St,Boston,MA,02135,584000,3,1.5,Brighton,1120,1404,1930,6,521,,Sold,,,http://www.redfin.com/MA/Brighton/6-Peaceable-St-02135/home/9045566,MLS PIN,72335778,N,Y,42.347647,-71.1518374
PAST SALE,June-29-2018,Condo/Co-op,316 Summit Ave Unit 2A,Boston,MA,02135,351000,1,1.0,Allston,600,,1900,37,585,284,Sold,,,http://www.redfin.com/MA/Boston/316-Summit-Ave-02135/unit-2A/home/146084256,MLS PIN,72350653,N,Y,42.3450338,-71.1400732
PAST SALE,August-1-2018,Multi-Family (2-4 Unit),7 Portina Rd,Boston,MA,02135,1299999,6,2.0,Brighton,3102,4998,1926,4,419,,Sold,,,http://www.redfin.com/MA/Brighton/7-Portina-Rd-02135/home/9036213,MLS PIN,72319448,N,Y,42.3439059,-71.1558293
PAST SALE,July-31-2018,Single Family Residential,73 Langley Rd,Boston,MA,02135,692500,3,1.5,Brighton,1325,4708,1960,5,523,,Sold,,,http://www.redfin.com/MA/Brighton/73-Langley-Rd-02135/home/9042341,MLS PIN,72342184,N,Y,42.3490932,-71.1651589
PAST SALE,,Condo/Co-op,32 Glenville Ave Unit 32-1,Boston,MA,02134,555000,2,1.0,,895,,1910,,620,,,,,http://www.redfin.com/MA/Boston/32-Glenville-Ave-02134/unit-32-1/home/8995711,,,N,Y,42.3504845,-71.1324083
PAST SALE,May-24-2018,Multi-Family (2-4 Unit),18-20 Dustin St,Boston,MA,02135,1250000,10,4.0,Brighton,3947,6363,1895,73,317,,Sold,,,http://www.redfin.com/MA/Boston/18-Dustin-St-02135/home/9009847,MLS PIN,72321135,N,Y,42.3514659,-71.1463324
PAST SALE,July-24-2018,Condo/Co-op,1874 Commonwealth Ave #8,Boston,MA,02135,389900,1,1.0,Brighton's Cleveland Circle,510,510,1950,12,765,325,Sold,,,http://www.redfin.com/MA/Boston/1874-Commonwealth-Ave-02135/unit-8/home/9027866,MLS PIN,72335631,N,Y,42.3380354,-71.15248
PAST SALE,June-4-2018,Condo/Co-op,1992 Commonwealth Ave #4,Boston,MA,02135,500500,2,1.0,Brighton,897,,1927,62,558,512,Sold,,,http://www.redfin.com/MA/Boston/1992-Commonwealth-Ave-02135/unit-4/home/9032384,MLS PIN,72293920,N,Y,42.3392584,-71.1578663
PAST SALE,,Condo/Co-op,85 Brainerd Rd,Boston,MA,02134,650000,2,2.0,,1100,,1986,,591,,,,,http://www.redfin.com/MA/Boston/85-Brainerd-Rd-02134/home/9298626,,,N,Y,42.3474042,-71.134768
PAST SALE,July-25-2018,Condo/Co-op,30 Kilsyth Rd #21,Brookline,MA,02445,715000,2,1.0,Brookline,987,,1905,11,724,645,Sold,,,http://www.redfin.com/MA/Brookline/30-Kilsyth-Rd-02445/unit-21/home/11456202,MLS PIN,72334792,N,Y,42.3387042,-71.1447415
PAST SALE,July-23-2018,Condo/Co-op,1419 COMMONWEALTH Ave #403,Boston,MA,02135,559000,2,2.0,Brighton,1017,,1920,13,550,625,Sold,,,http://www.redfin.com/MA/Boston/1419-Commonwealth-Ave-02135/unit-403/home/11508929,MLS PIN,72317484,N,Y,42.3491858,-71.1390999
PAST SALE,July-31-2018,Condo/Co-op,20 Chapel St Unit B411,Brookline,MA,02446,955000,3,2.0,Longwood,1141,174240,1920,5,837,1010,Sold,,,http://www.redfin.com/MA/Brookline/20-Chapel-St-02446/unit-B411/home/12458402,MLS PIN,72344864,N,Y,42.3410329,-71.1110021
PAST SALE,August-1-2018,Condo/Co-op,16 Colliston Rd #2,Boston,MA,02135,491000,1,1.0,Boston,680,680,1917,4,722,249,Sold,,,http://www.redfin.com/MA/Boston/16-Colliston-Rd-02135/unit-2/home/113246775,MLS PIN,72346088,N,Y,42.3393172,-71.1455479
PAST SALE,July-20-2018,Condo/Co-op,1650 Commonwealth #309,Boston,MA,02135,850000,2,2.0,Brighton,951,,2017,16,894,580,Sold,,,http://www.redfin.com/MA/Boston/1650-Commonwealth-Ave-02135/unit-309/home/145879004,MLS PIN,72335521,N,Y,42.3417583,-71.1436661
PAST SALE,August-1-2018,Condo/Co-op,26 Commonwealth Ter #16,Boston,MA,02135,455000,1,1.0,Brighton,540,540,1910,4,843,393,Sold,,,http://www.redfin.com/MA/Boston/26-Commonwealth-Ter-02135/unit-16/home/9226665,MLS PIN,72338297,N,Y,42.346549,-71.140389
PAST SALE,May-29-2018,Condo/Co-op,300 Allston St #111,Boston,MA,02135,565000,1,1.0,Brighton,822,822,2002,68,687,377,Sold,,,http://www.redfin.com/MA/Boston/300-Allston-St-02135/unit-111/home/9320802,MLS PIN,72296864,N,Y,42.3440819,-71.140343
PAST SALE,,Multi-Family (2-4 Unit),37 Claymoss Rd,Boston,MA,02135,920000,8,3.0,,3362,4406,1920,,274,,,,,http://www.redfin.com/MA/Boston/37-Claymoss-Rd-02135/home/9009062,,,N,Y,42.3445494,-71.1454098
PAST SALE,May-22-2018,Condo/Co-op,1480 Commonwealth Ave #1,Boston,MA,02135,385000,1,1.0,Brighton,675,675,1910,75,570,423,Sold,,,http://www.redfin.com/MA/Brighton/1480-Commonwealth-Ave-02135/unit-1B/home/9013970,MLS PIN,72309874,N,Y,42.3467407,-71.1405965
PAST SALE,May-31-2018,Condo/Co-op,1572 Commonwealth #3,Boston,MA,02135,284000,0,1.0,Brighton,306,,1920,66,928,247,Sold,,,http://www.redfin.com/MA/Boston/1572-Commonwealth-Ave-02135/unit-1572/home/9016972,MLS PIN,72306811,N,Y,42.3438401,-71.1424017
PAST SALE,,Condo/Co-op,149 Lake Shore Rd Unit 149-4,Boston,MA,02135,394000,2,1.0,,828,,1963,,476,,,,,http://www.redfin.com/MA/Boston/149-Lake-Shore-Rd-02135/unit-149-4/home/9043413,,,N,Y,42.3441093,-71.1691653
PAST SALE,,Multi-Family (2-4 Unit),671 Washington St Unit 671A,Brighton,MA,02135,1027500,5,2.0,,2782,4323,1915,,369,,,,,http://www.redfin.com/MA/Brighton/671-Washington-St-02135/unit-671A/home/9040099,,,N,Y,42.3518485,-71.1704502
PAST SALE,,Multi-Family (2-4 Unit),57 Bostonia Ave,Brighton,MA,02135,880000,5,2.0,,2392,4500,1930,,368,,,,,http://www.redfin.com/MA/Brighton/57-Bostonia-Ave-02135/home/9041751,,,N,Y,42.3486369,-71.168687
PAST SALE,,Condo/Co-op,29 Brainerd Rd Apt 202,Boston,MA,02134,488000,2,1.0,,885,,1904,,551,,,,,http://www.redfin.com/MA/Boston/29-Brainerd-Rd-02134/unit-202/home/8997101,,,N,Y,42.348686,-71.1315779
PAST SALE,July-13-2018,Condo/Co-op,78 Glenville Ave #2,Boston,MA,02134,344000,1,1.0,Allston,525,,1935,23,655,403,Sold,,,http://www.redfin.com/MA/Boston/78-Glenville-Ave-02134/unit-2/home/8998795,MLS PIN,72328992,N,Y,42.349186,-71.1349593
PAST SALE,July-13-2018,Condo/Co-op,84 Gordon St #206,Boston,MA,02135,400000,2,1.5,Brighton,819,,1910,23,488,542,Sold,,,http://www.redfin.com/MA/Boston/84-Gordon-St-02135/unit-206/home/9226550,MLS PIN,72337207,N,Y,42.3495152,-71.1392181
PAST SALE,July-5-2018,Single Family Residential,302 Mason Ter,Brookline,MA,02446,1300000,3,2.0,Corey Hill,1741,10100,1930,31,747,,Sold,,,http://www.redfin.com/MA/Brookline/302-Mason-Ter-02446/home/11452897,MLS PIN,72324596,N,Y,42.3446706,-71.1349877
PAST SALE,May-17-2018,Condo/Co-op,73 Mount Vernon #3,Boston,MA,02108,1940000,2,1.0,Beacon Hill,1184,,1899,80,1639,394,Sold,,,http://www.redfin.com/MA/Boston/73-Mount-Vernon-St-02108/unit-3/home/112346696,MLS PIN,72269398,N,Y,42.3584787,-71.0667934
PAST SALE,May-24-2018,Condo/Co-op,124 Beacon St Unit PHF,Boston,MA,02116,1395000,2,2.0,Back Bay,1044,,1899,73,1336,675,Sold,,,http://www.redfin.com/MA/Boston/124-Beacon-St-02116/unit-PHF/home/113232791,MLS PIN,72292891,N,Y,42.355234,-71.074448
PAST SALE,May-23-2018,Condo/Co-op,42 Mount Vernon Unit 5A,Boston,MA,02108,2014000,2,2.0,Beacon Hill,1447,,1850,74,1392,863,Sold,,,http://www.redfin.com/MA/Boston/42-Mt-Vernon-St-02108/unit-5A/home/18967658,MLS PIN,72302360,N,Y,42.3581475,-71.0665337
PAST SALE,June-14-2018,Condo/Co-op,73 Mt Vernon St #4,Boston,MA,02108,3700000,3,3.0,Beacon Hill,2332,,1899,52,1587,788,Sold,,,http://www.redfin.com/MA/Boston/73-Mount-Vernon-St-02108/unit-4/home/112346674,MLS PIN,72100212,N,Y,42.3584787,-71.0667934
PAST SALE,,Condo/Co-op,40 Mt Vernon St Unit 5A,Boston,MA,02108,2014000,2,2.0,,1447,,1850,,1392,,,,,http://www.redfin.com/MA/Boston/40-Mt-Vernon-St-02108/unit-5A/home/9260448,,,N,Y,42.3581975,-71.0664016
PAST SALE,May-25-2018,Condo/Co-op,30 Hancock St #4,Boston,MA,02114,949000,2,1.5,Beacon Hill,947,947,1850,72,1002,211,Sold,,,http://www.redfin.com/MA/Boston/30-Hancock-St-02114/unit-4/home/9276384,MLS PIN,72302676,N,Y,42.3600911,-71.0642129
PAST SALE,,Condo/Co-op,26 Mt Vernon St Unit 2R,Boston,MA,02108,475000,1,1.0,,546,,1850,,870,,,,,http://www.redfin.com/MA/Boston/26-Mt-Vernon-St-02108/unit-2R/home/9258902,,,N,Y,42.3582275,-71.065539
PAST SALE,,Condo/Co-op,67 Mt Vernon St Unit I,Boston,MA,02108,1725000,2,2.0,,1436,,1860,,1201,,,,,http://www.redfin.com/MA/Boston/67-Mt-Vernon-St-02108/unit-I/home/9259305,,,N,Y,42.3583483,-71.0665092
PAST SALE,,Condo/Co-op,151 Tremont St Apt 22K,Boston,MA,02111,850000,1,1.0,,605,,1968,,1405,,,,,http://www.redfin.com/MA/Boston/151-Tremont-St-02111/unit-22K/home/11510211,,,N,Y,42.3545253,-71.0634233
PAST SALE,June-1-2018,Condo/Co-op,36 Joy Unit 36 1/2,Boston,MA,02114,1710000,3,2.0,Beacon Hill,1700,999,1799,65,1006,577,Sold,,,http://www.redfin.com/MA/Boston/36-Joy-St-02114/unit-36-1-2/home/144083139,MLS PIN,72282165,N,Y,42.3597013,-71.0652001
PAST SALE,,Condo/Co-op,21 Beacon St #28,Boston,MA,02108,550000,1,1.0,,438,,1899,,1256,,,,,http://www.redfin.com/MA/Boston/21-Beacon-St-02108/unit-28/home/9276682,,,N,Y,42.358197,-71.062431
PAST SALE,May-25-2018,Condo/Co-op,21 Beacon St Unit 2B,Boston,MA,02108,550000,1,1.0,Boston,438,438,1899,72,1256,383,Sold,,,http://www.redfin.com/MA/Boston/21-Beacon-St-02108/unit-2B/home/146162460,MLS PIN,72315766,N,Y,42.358197,-71.062431
PAST SALE,July-2-2018,Condo/Co-op,32 Derne St Unit 2B,Boston,MA,02114,2950000,3,3.5,Beacon Hill,2388,,1880,34,1235,1657,Sold,,,http://www.redfin.com/MA/Boston/32-Derne-St-02108/unit-2B/home/103675113,MLS PIN,72288004,N,Y,42.3596031,-71.064174
PAST SALE,June-11-2018,Townhouse,15 Pinckney St #8,Boston,MA,02114,1150000,3,2.0,Beacon Hill,1250,1250,1905,55,920,348,Sold,,,http://www.redfin.com/MA/Boston/15-Pinckney-St-02114/unit-8/home/9257951,MLS PIN,72320992,N,Y,42.3589632,-71.0656087
PAST SALE,June-15-2018,Condo/Co-op,109 Beacon St #6,Boston,MA,02116,1650000,2,2.0,Back Bay,2061,,1865,51,801,457,Sold,,,http://www.redfin.com/MA/Boston/109-Beacon-St-02116/unit-6/home/9253900,MLS PIN,72285906,N,Y,42.3549939,-71.0730876
PAST SALE,June-15-2018,Multi-Family (5+ Unit),83 Mount Vernon St,Boston,MA,02108,8550000,6,6.0,Beacon Hill,9364,3247,1834,51,913,,Sold,,,http://www.redfin.com/MA/Boston/83-Mt-Vernon-St-02108/home/9259339,MLS PIN,72321926,N,Y,42.3584333,-71.0673961
PAST SALE,June-15-2018,Condo/Co-op,45 Province St #1707,Boston,MA,02108,679000,0,1.0,Midtown,535,,2009,51,1269,361,Sold,,,http://www.redfin.com/MA/Boston/45-Province-St-02108/unit-1707/home/39913558,MLS PIN,72285696,N,Y,42.3573275,-71.0599445
PAST SALE,,Condo/Co-op,72 Pinckney St,Boston,MA,02114,850000,1,1.0,,695,,1855,,1223,,,,,http://www.redfin.com/MA/Boston/72-Pinckney-St-02114/home/9259099,,,N,Y,42.3586809,-71.0680447
PAST SALE,July-16-2018,Condo/Co-op,33 Irving St #4,Boston,MA,02114,499900,1,1.0,Beacon Hill,390,,1900,20,1282,291,Sold,,,http://www.redfin.com/MA/Boston/33-Irving-St-02114/unit-4/home/11509696,MLS PIN,72330278,N,Y,42.3600272,-71.066514
PAST SALE,July-16-2018,Townhouse,39-41 Mount Vernon St Unit IV,Boston,MA,02108,5500000,3,3.5,Beacon Hill,2937,,1917,20,1873,3453,Sold,,,http://www.redfin.com/MA/Boston/39-Mount-Vernon-St-02108/unit-IV/home/146257361,MLS PIN,71839128,N,Y,42.3585204,-71.0649184
PAST SALE,June-29-2018,Condo/Co-op,45 Province St Unit 2N,Boston,MA,02108,1537500,2,2.0,Midtown,1615,1615,2009,37,952,1189,Sold,,,http://www.redfin.com/MA/Boston/45-Province-St-02108/unit-2N/home/27789792,MLS PIN,72283304,N,Y,42.3573275,-71.0599445
PAST SALE,,Condo/Co-op,13 Chestnut St Unit 1B,Boston,MA,02108,980000,1,1.0,,690,,1875,,1420,,,,,http://www.redfin.com/MA/Boston/13-Chestnut-St-02108/unit-1B/home/9260453,,,N,Y,42.3578186,-71.066839
PAST SALE,July-27-2018,Condo/Co-op,21 Temple St #8,Boston,MA,02114,485000,1,1.0,Beacon Hill,385,,1914,9,1260,323,Sold,,,http://www.redfin.com/MA/Boston/21-Temple-St-02114/unit-8/home/113238619,MLS PIN,72336603,N,Y,42.3607171,-71.0638533
PAST SALE,July-30-2018,Condo/Co-op,151 Tremont St Unit 18-F,Boston,MA,02111,950000,1,1.0,Midtown,765,,1967,6,1242,651,Sold,,,http://www.redfin.com/MA/Boston/151-Tremont-St-02111/unit-18F/home/9279787,MLS PIN,72335804,N,Y,42.3545253,-71.0634233
PAST SALE,August-1-2018,Condo/Co-op,151 Tremont St Unit 7K,Boston,MA,02111,702500,1,1.0,Midtown,605,605,1968,4,1161,435,Sold,,,http://www.redfin.com/MA/Boston/151-Tremont-St-02111/unit-7K/home/9279342,MLS PIN,72340816,N,Y,42.3545253,-71.0634233
PAST SALE,July-31-2018,Condo/Co-op,11 Myrtle St #5,Boston,MA,02114,699000,1,1.0,Beacon Hill,595,,1920,5,1175,360,Sold,,,http://www.redfin.com/MA/Boston/11-Myrtle-St-02114/unit-5/home/9276520,MLS PIN,72327842,N,Y,42.3594736,-71.0649433
PAST SALE,June-15-2018,Condo/Co-op,51 Hancock St #4,Boston,MA,02114,475000,0,1.0,Beacon Hill,340,1340,1900,51,1397,308,Sold,,,http://www.redfin.com/MA/Boston/51-Hancock-St-02114/unit-4/home/9227962,MLS PIN,72293288,N,Y,42.3596925,-71.0646337
PAST SALE,,Condo/Co-op,57 Myrtle St #3,Boston,MA,02114,542000,1,1.0,,487,,1910,,1113,,,,,http://www.redfin.com/MA/Boston/57-Myrtle-St-02114/unit-3/home/9258056,,,N,Y,42.3594971,-71.0663036
PAST SALE,May-25-2018,Single Family Residential,6 Van Brunt St,Boston,MA,02136,380000,2,1.0,Fairmount Hill,704,6169,1950,72,540,,Sold,,,http://www.redfin.com/MA/Hyde-Park/6-Van-Brunt-St-02136/home/9136824,MLS PIN,72304410,N,Y,42.2428818,-71.1246362
PAST SALE,May-25-2018,Single Family Residential,111 Pierce St,Boston,MA,02136,395800,4,1.0,Hyde Park's Fairmount,1624,4660,1910,72,244,,Sold,,,http://www.redfin.com/MA/Hyde-Park/111-Pierce-St-02136/home/9126877,MLS PIN,72303383,N,Y,42.2581877,-71.1158278
PAST SALE,,Condo/Co-op,650 Metropolitan Ave Apt 2,Hyde Park,MA,02136,160000,1,1.0,,850,,1920,,188,,,,,http://www.redfin.com/MA/Hyde-Park/650-Metropolitan-Ave-02136/unit-2/home/11740003,,,N,Y,42.2638431,-71.1175338
PAST SALE,June-27-2018,Townhouse,38 Woodmere Dr #26,Milton,MA,02186,1040000,3,2.5,Blue Hills,2610,,2018,39,398,475,Sold,,,http://www.redfin.com/MA/Milton/38-Woodmere-Dr-02186/unit-26/home/143667741,MLS PIN,72255034,N,Y,42.242433,-71.116249
PAST SALE,June-29-2018,Townhouse,21 Beacon St #21,Boston,MA,02136,512000,3,2.5,Hyde Park,1886,1875,1910,37,271,,Sold,,,http://www.redfin.com/MA/Boston/21-Beacon-St-02133/unit-21/home/39876268,MLS PIN,72315266,N,Y,42.2529734,-71.1170062
PAST SALE,June-21-2018,Single Family Residential,58 Summit St,Boston,MA,02136,585000,3,1.5,Fairmount Hill,2466,7438,1835,45,237,,Sold,,,http://www.redfin.com/MA/Hyde-Park/58-Summit-St-02136/home/9128769,MLS PIN,72311795,N,Y,42.2502001,-71.1123346
PAST SALE,June-18-2018,Condo/Co-op,32 Williams Ave #2,Boston,MA,02136,286749,2,1.0,Boston,705,705,1983,48,407,187,Sold,,,http://www.redfin.com/MA/Boston/32-Williams-Ave-02136/unit-2/home/12432097,MLS PIN,72320564,N,Y,42.2504585,-71.1181052
PAST SALE,June-25-2018,Single Family Residential,123 Milton Ave,Boston,MA,02136,472000,3,1.5,Hyde Park's Fairmount,1324,4244,1955,41,356,,Sold,,,http://www.redfin.com/MA/Hyde-Park/123-Milton-Ave-02136/home/9128841,MLS PIN,72298241,N,Y,42.2504078,-71.1115339
PAST SALE,June-29-2018,Single Family Residential,26 Highland St,Boston,MA,02136,435000,3,2.0,Hyde Park's Fairmount,1360,5149,1956,37,320,,Sold,,,http://www.redfin.com/MA/Hyde-Park/26-Highland-St-02136/home/9129521,MLS PIN,72324685,N,Y,42.2509746,-71.1168839
PAST SALE,June-28-2018,Single Family Residential,198 Brush Hill Rd,Milton,MA,02186,520500,3,1.5,Milton,2080,4581,1880,38,250,,Sold,,,http://www.redfin.com/MA/Milton/198-Brush-Hill-Rd-02186/home/8900855,MLS PIN,72302729,N,Y,42.2599465,-71.1010424
PAST SALE,,Townhouse,38 Woodmere Dr,Milton,MA,02186,1040000,2,2.5,,,,2016,,,,,,,http://www.redfin.com/MA/Milton/38-Woodmere-Dr-02186/home/113048783,,,N,Y,42.2432674,-71.1160869
PAST SALE,August-1-2018,Condo/Co-op,32 Williams Ave #3,Boston,MA,02136,415000,4,2.0,Hyde Park,1395,,1900,4,297,225,Sold,,,http://www.redfin.com/MA/Boston/32-Williams-Ave-02136/unit-3/home/12431645,MLS PIN,72328729,N,Y,42.2504585,-71.1181052
PAST SALE,July-11-2018,Single Family Residential,67 Westminster St,Boston,MA,02136,473000,4,2.0,Hyde Park,1933,5025,1900,25,245,,Sold,,,http://www.redfin.com/MA/Hyde-Park/67-Westminster-St-02136/home/9126379,MLS PIN,72236684,N,Y,42.2638626,-71.1187408
PAST SALE,June-7-2018,Condo/Co-op,776 Boylston Unit Ten C East,Boston,MA,02116,4695000,2,2.5,Back Bay,2435,,2008,59,1928,4641,Sold,,,http://www.redfin.com/MA/Boston/776-Boylston-St-02199/unit-Ten-C-East/home/144226220,MLS PIN,72249489,N,Y,42.3487748,-71.0813479
PAST SALE,May-22-2018,Condo/Co-op,201 Newbury St #508,Boston,MA,02116,1215000,2,2.0,Back Bay,1126,1221,1876,75,1079,1625,Sold,,,http://www.redfin.com/MA/Boston/201-Newbury-St-02116/unit-508/home/9238235,MLS PIN,72292779,N,Y,42.3504375,-71.080465
PAST SALE,June-15-2018,Condo/Co-op,271 Dartmouth St Unit 3H,Boston,MA,02116,665000,1,1.0,Back Bay,560,560,1885,51,1188,498,Sold,,,http://www.redfin.com/MA/Boston/271-Dartmouth-St-02116/unit-3H/home/137182873,MLS PIN,72315598,N,Y,42.3507376,-71.0772658
PAST SALE,June-27-2018,Condo/Co-op,60 Commonwealth Unit 7&8,Boston,MA,02116,1830000,3,2.0,Back Bay,1410,,1867,39,1298,1035,Sold,,,http://www.redfin.com/MA/Boston/60-Commonwealth-Ave-02116/unit-7-8/home/145275628,MLS PIN,72303470,N,Y,42.352437,-71.0744529
PAST SALE,June-28-2018,Condo/Co-op,56 Commonwealth Ave,Boston,MA,02116,3100000,2,2.0,Back Bay,1000,1000,1930,38,3100,912,Sold,,,http://www.redfin.com/MA/Boston/56-Commonwealth-Ave-02116/Ph/home/77507216,MLS PIN,72339535,N,Y,42.3524682,-71.0742288
PAST SALE,June-28-2018,Condo/Co-op,11 Exeter #2,Boston,MA,02116,770000,1,1.0,Back Bay,595,,1900,38,1294,293,Sold,,,http://www.redfin.com/MA/Boston/11-Exeter-St-02116/unit-2/home/145186527,MLS PIN,72296344,N,Y,42.352353,-71.081185
PAST SALE,June-12-2018,Condo/Co-op,341 Beacon Unit 4C,Boston,MA,02116,2475000,2,2.5,Back Bay,1535,,1900,54,1612,885,Sold,,,http://www.redfin.com/MA/Boston/341-Beacon-St-02116/unit-4C/home/9238396,MLS PIN,72314896,N,Y,42.352331,-71.0829526
PAST SALE,,Condo/Co-op,265 Dartmouth St Unit 1C,Boston,MA,02116,499000,1,1.0,,503,,1885,,992,,,,,http://www.redfin.com/MA/Boston/265-Dartmouth-St-02116/unit-1C/home/9264466,,,N,Y,42.350144,-71.0773573
PAST SALE,June-22-2018,Condo/Co-op,61 Commonwealth Ave #2,Boston,MA,02116,604000,0,1.0,Back Bay,503,503,1925,44,1201,341,Sold,,,http://www.redfin.com/MA/Boston/61-Commonwealth-Ave-02116/unit-2/home/9252639,MLS PIN,72323548,N,Y,42.3529831,-71.0758423
PAST SALE,May-18-2018,Condo/Co-op,279 Beacon St #1,Boston,MA,02116,895000,2,2.0,Back Bay,1017,1017,1880,79,880,524,Sold,,,http://www.redfin.com/MA/Boston/279-Beacon-St-02116/unit-1/home/9248687,MLS PIN,72286337,N,Y,42.3530596,-71.0802507
PAST SALE,,Condo/Co-op,86 Marlborough St Apt 9,Boston,MA,02116,1313000,2,1.0,,1531,,1920,,858,,,,,http://www.redfin.com/MA/Boston/86-Marlborough-St-02116/unit-9/home/9252540,,,N,Y,42.3533845,-71.0758144
PAST SALE,June-1-2018,Condo/Co-op,278 Clarendon St #1,Boston,MA,02116,608000,1,1.0,Back Bay,767,,1910,65,793,385,Sold,,,http://www.redfin.com/MA/Boston/278-Clarendon-St-02116/unit-1/home/9237491,MLS PIN,72305320,N,Y,42.3539339,-71.0769925
PAST SALE,May-31-2018,Condo/Co-op,8 W Hill Pl #2,Boston,MA,02114,1600000,3,2.0,Beacon Hill,1380,1380,1917,66,1159,925,Sold,,,http://www.redfin.com/MA/Boston/8-W-Hill-Pl-02114/unit-2/home/9256361,MLS PIN,72299241,N,Y,42.360081,-71.0714361
PAST SALE,July-25-2018,Condo/Co-op,377 Marlborough St #3,Boston,MA,02115,1150000,2,2.0,Back Bay,800,800,1986,11,1438,206,Sold,,,http://www.redfin.com/MA/Boston/377-Marlborough-St-02115/unit-3/home/9239135,MLS PIN,72345381,N,Y,42.3506838,-71.087454
PAST SALE,July-27-2018,Condo/Co-op,246 Beacon Unit 3A,Boston,MA,02116,882000,1,1.0,Back Bay,762,,1869,9,1157,509,Sold,,,http://www.redfin.com/MA/Boston/246-Beacon-St-02116/unit-3A/home/9248113,MLS PIN,72332172,N,Y,42.3537323,-71.0797234
PAST SALE,July-27-2018,Condo/Co-op,282 Marlborough #2,Boston,MA,02116,1300000,2,1.5,Back Bay,1027,,1900,9,1266,325,Sold,,,http://www.redfin.com/MA/Boston/282-Marlborough-St-02116/unit-2/home/137621821,MLS PIN,72352860,N,Y,42.351433,-71.0832538
PAST SALE,August-1-2018,Single Family Residential,86 Chestnut St,Boston,MA,02108,3300000,4,2.0,Beacon Hill,3010,1458,1845,4,1096,,Sold,,,http://www.redfin.com/MA/Boston/86-Chestnut-St-02108/home/45407564,MLS PIN,72300188,N,Y,42.3568246,-71.0704009
PAST SALE,July-26-2018,Townhouse,348 Marlborough St #1,Boston,MA,02115,1890000,2,2.5,Back Bay,1665,1665,1880,10,1135,479,Sold,,,http://www.redfin.com/MA/Boston/348-Marlborough-St-02115/unit-1/home/9246109,MLS PIN,72318802,N,Y,42.3506887,-71.0857944
PAST SALE,August-1-2018,Condo/Co-op,236 Marlborough St #2,Boston,MA,02116,1400000,2,2.0,Back Bay,1128,1128,1881,4,1241,462,Sold,,,http://www.redfin.com/MA/Boston/236-Marlborough-St-02116/unit-2/home/9247603,MLS PIN,72329325,N,Y,42.3518199,-71.0816095
PAST SALE,July-31-2018,Condo/Co-op,250 Commonwealth Ave #9,Boston,MA,02116,1040000,2,1.0,Back Bay,1045,,1925,5,995,650,Sold,,,http://www.redfin.com/MA/Boston/250-Commonwealth-Ave-02116/unit-9/home/9266599,MLS PIN,72315691,N,Y,42.3501458,-71.0828323
PAST SALE,,Condo/Co-op,534 Commonwealth Ave Unit 4D,Boston,MA,02215,771741,2,2.0,,909,,1910,,849,,,,,http://www.redfin.com/MA/Boston/534-Commonwealth-Ave-02215/unit-4D/home/9321340,,,N,Y,42.3484521,-71.0965469
PAST SALE,,Townhouse,350 Marlborough St Apt 2,Boston,MA,02115,701100,1,1.5,,860,860,1890,,815,,,,,http://www.redfin.com/MA/Boston/350-Marlborough-St-02115/unit-2/home/11836783,,,N,Y,42.3506666,-71.0858734
PAST SALE,,Condo/Co-op,15 River St Apt 503,Boston,MA,02108,645000,1,1.0,,505,,1900,,1277,,,,,http://www.redfin.com/MA/Boston/15-River-St-02108/unit-503/home/11838671,,,N,Y,42.3566153,-71.0699291
PAST SALE,August-3-2018,Condo/Co-op,274 Beacon Unit 4F,Boston,MA,02116,1625000,2,2.0,Back Bay,1890,,1880,2,860,2800,Sold,,,http://www.redfin.com/MA/Boston/274-Beacon-St-02116/unit-4F/home/101389144,MLS PIN,72307711,N,Y,42.3535171,-71.0809989
PAST SALE,August-3-2018,Single Family Residential,344 Beacon,Boston,MA,02116,9235000,5,7.0,Back Bay,7500,3300,1900,2,1231,,Sold,,,http://www.redfin.com/MA/Boston/344-Beacon-St-02116/home/9238631,MLS PIN,72312583,N,Y,42.3524716,-71.0841228
PAST SALE,August-3-2018,Condo/Co-op,19 Brimmer St #5,Boston,MA,02108,1226000,2,1.5,Beacon Hill,1164,,1880,2,1053,423,Sold,,,http://www.redfin.com/MA/Boston/19-Brimmer-St-02108/unit-5/home/9255479,MLS PIN,72348345,N,Y,42.3581416,-71.0721081
PAST SALE,June-29-2018,Condo/Co-op,464 Commonwealth Ave #85,Boston,MA,02215,860000,2,2.0,Back Bay,982,,,37,876,705,Sold,,,http://www.redfin.com/MA/Boston/464-Commonwealth-Ave-02215/unit-85/home/9269415,MLS PIN,72318499,N,Y,42.3485171,-71.0931864
PAST SALE,July-6-2018,Townhouse,292 Beacon St #7,Boston,MA,02116,1005000,2,1.0,Back Bay,1040,1040,1930,30,966,938,Sold,,,http://www.redfin.com/MA/Boston/292-Beacon-St-02116/unit-7/home/9246855,MLS PIN,72296966,N,Y,42.3531856,-71.0819769
PAST SALE,July-9-2018,Townhouse,283 Commonwealth Ave #2,Boston,MA,02115,1720000,2,2.0,Back Bay,1405,1405,1999,27,1224,764,Sold,,,http://www.redfin.com/MA/Boston/283-Commonwealth-Ave-02115/unit-2/home/9304668,MLS PIN,72324505,N,Y,42.3504919,-71.0850863
PAST SALE,,Multi-Family (2-4 Unit),15 Mansfield St,Allston,MA,02134,1150000,6,2.5,,2677,5280,1905,,430,,,,,http://www.redfin.com/MA/Allston/15-Mansfield-St-02134/home/8994564,,,N,Y,42.3574868,-71.1304386
PAST SALE,June-15-2018,Multi-Family (2-4 Unit),129 Franklin,Boston,MA,02134,1200000,9,3.0,Allston,3936,4534,1895,51,305,,Sold,,,http://www.redfin.com/MA/Allston/129-Franklin-St-02134/home/8990695,MLS PIN,72319557,N,Y,42.3605398,-71.1320169
PAST SALE,May-31-2018,Single Family Residential,12 Hopedale St,Boston,MA,02134,990000,4,1.5,Allston,1882,3665,1920,66,526,,Sold,,,http://www.redfin.com/MA/Allston/12-Hopedale-St-02134/home/9226795,MLS PIN,72311471,N,Y,42.3597317,-71.12705
PAST SALE,June-7-2018,Condo/Co-op,3 Cypress Rd #305,Boston,MA,02135,414000,2,1.0,Brighton,616,,1900,59,672,240,Sold,,,http://www.redfin.com/MA/Boston/3-Cypress-Rd-02135/unit-305/home/9016088,MLS PIN,72316316,N,Y,42.3544883,-71.1495947
PAST SALE,June-22-2018,Condo/Co-op,107 Bigelow St #2,Boston,MA,02135,375000,1,1.0,Brighton,604,604,1899,44,621,254,Sold,,,http://www.redfin.com/MA/Boston/107-Bigelow-St-02135/unit-2/home/11732035,MLS PIN,72314714,N,Y,42.3554398,-71.1665847
PAST SALE,May-29-2018,Multi-Family (2-4 Unit),42-44 Hano St,Boston,MA,02134,670000,4,2.0,Boston,1942,1534,1890,68,345,,Sold,,,http://www.redfin.com/MA/Boston/42-Hano-St-02134/home/11833130,MLS PIN,72273023,N,Y,42.3557456,-71.1370256
PAST SALE,May-24-2018,Condo/Co-op,33 Arden St #1,Boston,MA,02134,645000,3,2.0,Allston,1301,,1920,73,496,250,Sold,,,http://www.redfin.com/MA/Boston/33-Arden-St-02134/unit-1/home/28456669,MLS PIN,72303328,N,Y,42.3593154,-71.1292529
PAST SALE,July-18-2018,Multi-Family (2-4 Unit),46 Hobart St,Boston,MA,02135,1015000,5,3.0,Brighton,2556,5300,1930,18,397,,Sold,,,http://www.redfin.com/MA/Brighton/46-Hobart-St-02135/home/9032062,MLS PIN,72310695,N,Y,42.3548472,-71.1596818
PAST SALE,June-26-2018,Condo/Co-op,2 Cypress Rd #205,Boston,MA,02135,386925,1,1.0,Brighton,579,579,1900,40,668,211,Sold,,,http://www.redfin.com/MA/Boston/2-Cypress-Rd-02135/unit-205/home/9016260,MLS PIN,72319149,N,Y,42.3544883,-71.1495947
PAST SALE,,Single Family Residential,49 Hano St,Allston,MA,02134,650000,3,1.0,,1338,1368,1890,,486,,,,,http://www.redfin.com/MA/Allston/49-Hano-St-02134/home/8988954,,,N,Y,42.355628,-71.137564
PAST SALE,July-20-2018,Condo/Co-op,20 Penniman #101,Boston,MA,02134,730000,2,2.0,Allston,1009,,2018,16,723,402,Sold,,,http://www.redfin.com/MA/Boston/20-Penniman-Rd-02134/unit-101/home/144899286,MLS PIN,72283178,N,Y,42.3558649,-71.1363068
PAST SALE,July-20-2018,Condo/Co-op,20 Penniman #103,Boston,MA,02134,690000,2,2.0,Allston,999,,2018,16,691,402,Sold,,,http://www.redfin.com/MA/Boston/20-Penniman-Rd-02134/unit-103/home/144899296,MLS PIN,72283180,N,Y,42.3558649,-71.1363068
PAST SALE,July-12-2018,Condo/Co-op,20 Penniman #203,Boston,MA,02134,765000,2,2.0,Allston,986,,2018,24,776,396,Sold,,,http://www.redfin.com/MA/Boston/20-Penniman-Rd-02134/unit-203/home/144899331,MLS PIN,72283195,N,Y,42.3558649,-71.1363068
PAST SALE,July-3-2018,Condo/Co-op,20 Penniman #303,Boston,MA,02134,743500,2,2.0,Allston,992,,2018,33,749,402,Sold,,,http://www.redfin.com/MA/Boston/20-Penniman-Rd-02134/unit-303/home/144899334,MLS PIN,72283200,N,Y,42.3558649,-71.1363068
PAST SALE,July-20-2018,Condo/Co-op,20 Penniman #304,Boston,MA,02134,770000,2,2.0,Allston,1009,,2018,16,763,402,Sold,,,http://www.redfin.com/MA/Boston/20-Penniman-Rd-02134/unit-304/home/144899343,MLS PIN,72283203,N,Y,42.3558649,-71.1363068
PAST SALE,July-13-2018,Condo/Co-op,20 Penniman #404,Boston,MA,02134,740000,2,2.0,Allston,1003,,2018,23,738,402,Sold,,,http://www.redfin.com/MA/Boston/20-Penniman-Rd-02134/unit-404/home/144669114,MLS PIN,72269633,N,Y,42.3558649,-71.1363068
PAST SALE,July-31-2018,Condo/Co-op,107 Bigelow #3,Boston,MA,02135,485000,2,1.0,Brighton,1166,,1899,5,416,370,Sold,,,http://www.redfin.com/MA/Boston/107-Bigelow-St-02135/unit-3/home/9034203,MLS PIN,72328314,N,Y,42.3554398,-71.1665847
PAST SALE,July-31-2018,Condo/Co-op,58 Franklin St #3,Boston,MA,02134,480000,2,1.0,Allston,806,,1910,5,596,115,Sold,,,http://www.redfin.com/MA/Boston/58-Franklin-St-02134/unit-3/home/145663355,MLS PIN,72328244,N,Y,42.357603,-71.133216
PAST SALE,July-23-2018,Single Family Residential,624 Cambridge St,Boston,MA,02134,1031059,6,3.0,Boston,2353,2201,1915,13,438,,Sold,,,http://www.redfin.com/MA/Boston/Cambridge-St-Unknown/home/11503496,MLS PIN,72312813,N,Y,42.3553196,-71.1332527
PAST SALE,August-3-2018,Condo/Co-op,20 Penniman #408,Boston,MA,02134,775000,2,1.0,Allston,936,,2018,2,828,375,Sold,,,http://www.redfin.com/MA/Boston/20-Penniman-Rd-02134/unit-408/home/144899282,MLS PIN,72283177,N,Y,42.3558649,-71.1363068
PAST SALE,August-1-2018,Condo/Co-op,20 Penniman #302,Boston,MA,02134,740000,2,2.0,Allston,1022,,2018,4,724,402,Sold,,,http://www.redfin.com/MA/Boston/20-Penniman-Rd-02134/unit-302/home/144899326,MLS PIN,72283184,N,Y,42.3558649,-71.1363068
PAST SALE,August-2-2018,Condo/Co-op,20 Penniman #105,Boston,MA,02134,525000,1,1.0,Allston,690,,2018,3,761,250,Sold,,,http://www.redfin.com/MA/Boston/20-Penniman-Rd-02134/unit-105/home/144899452,MLS PIN,72283233,N,Y,42.3558649,-71.1363068
PAST SALE,July-27-2018,Condo/Co-op,20 Penniman #104,Boston,MA,02134,715000,2,2.0,Allston,1006,,2018,9,711,403,Sold,,,http://www.redfin.com/MA/Boston/20-Penniman-Rd-02134/unit-104/home/144669083,MLS PIN,72269628,N,Y,42.3558649,-71.1363068
PAST SALE,July-31-2018,Condo/Co-op,20 Penniman #305,Boston,MA,02134,535000,1,1.0,Allston,608,,2018,5,880,250,Sold,,,http://www.redfin.com/MA/Boston/20-Penniman-Rd-02134/unit-305/home/144899254,MLS PIN,72283162,N,Y,42.3558649,-71.1363068
PAST SALE,August-3-2018,Single Family Residential,78 Litchfield St,Boston,MA,02135,775000,3,2.5,Brighton,1300,4600,1960,2,596,,Sold,,,http://www.redfin.com/MA/Boston/78-Litchfield-St-02135/home/9010981,MLS PIN,72350848,N,Y,42.3603402,-71.1408829
PAST SALE,May-16-2018,Condo/Co-op,1 Charles St S #1507,Boston,MA,02116,825000,1,1.0,Back Bay,690,690,2004,81,1196,676,Sold,,,http://www.redfin.com/MA/Boston/1-Charles-St-S-02116/unit-1507/home/143822893,MLS PIN,72309146,N,Y,42.3513305,-71.0673972
PAST SALE,May-18-2018,Condo/Co-op,40 Traveler #605,Boston,MA,02118,1395000,2,2.0,South End,1264,,2018,79,1104,915,Sold,,,http://www.redfin.com/MA/Boston/40-Traveler-St-02118/unit-605/home/145137777,MLS PIN,72294593,N,Y,42.3443125,-71.0629483
PAST SALE,May-18-2018,Condo/Co-op,40 Traveler St #403,Boston,MA,02118,1325904,2,2.0,South End,1289,,2018,79,1029,958,Sold,,,http://www.redfin.com/MA/Boston/40-Traveler-St-02118/unit-403/home/144660341,MLS PIN,72268745,N,Y,42.3443125,-71.0629483
PAST SALE,May-7-2018,Condo/Co-op,110 Stuart St Unit 18J,Boston,MA,02116,1030000,1,1.5,Midtown,1103,1103,2009,90,934,706,Sold,,,http://www.redfin.com/MA/Boston/110-Stuart-St-02116/unit-18J/home/28599068,MLS PIN,72258880,N,Y,42.3509572,-71.0654038
PAST SALE,May-31-2018,Condo/Co-op,11 Fayette St #1,Boston,MA,02116,1295000,2,2.0,South End,1234,,1837,66,1049,275,Sold,,,http://www.redfin.com/MA/Boston/11-Fayette-St-02116/unit-1/home/112851918,MLS PIN,72299414,N,Y,42.3492495,-71.0670363
PAST SALE,June-13-2018,Condo/Co-op,170 Tremont St #1704,Boston,MA,02111,1075000,2,2.0,Midtown,1169,,1989,53,920,1538,Sold,,,http://www.redfin.com/MA/Boston/170-Tremont-St-02111/unit-1704/home/9232399,MLS PIN,72296568,N,Y,42.353688,-71.0638444
PAST SALE,,Multi-Family (5+ Unit),46 Melrose St,Boston,MA,02116,1700000,,,,2240,757,1900,,759,,,,,http://www.redfin.com/MA/Boston/46-Melrose-St-02116/home/9263286,,,N,Y,42.3489343,-71.0687773
PAST SALE,June-22-2018,Condo/Co-op,485 Harrison Ave #509,Boston,MA,02118,1590000,2,2.0,South End,1386,,2003,44,1147,881,Sold,,,http://www.redfin.com/MA/Boston/485-Harrison-Ave-02118/unit-509/home/113225455,MLS PIN,72324174,N,Y,42.3419444,-71.0668157
PAST SALE,,Condo/Co-op,110 Stuart St Unit 26C,Boston,MA,02116,1810000,2,2.0,,1286,,2009,,1407,,,,,http://www.redfin.com/MA/Boston/110-Stuart-St-02116/unit-26C/home/39913359,,,N,Y,42.3509572,-71.0654038
PAST SALE,,Condo/Co-op,95 Hudson St #1,Boston,MA,02111,1915000,2,2.0,,902,,2016,,2123,,,,,http://www.redfin.com/MA/Boston/95-Hudson-St-02111/unit-1/home/145254731,,,N,Y,42.348491,-71.0611284
PAST SALE,,Other,134-136 Boylston St,Boston,MA,02116,7000000,,,,7584,1914,1920,,923,,,,,http://www.redfin.com/MA/Boston/134-136-Boylston-St-02116/home/85683118,,,N,Y,42.352274,-71.066156
PAST SALE,June-1-2018,Condo/Co-op,110 Stuart St Unit 16F,Boston,MA,02116,980000,1,1.5,Back Bay,857,857,2009,65,1144,1017,Sold,,,http://www.redfin.com/MA/Boston/110-Stuart-St-02116/unit-16F/home/28599062,MLS PIN,72172181,N,Y,42.3509572,-71.0654038
PAST SALE,June-27-2018,Parking,35 Fay St,Boston,MA,02118,110000,,,South End,,,,39,,,Sold,,,http://www.redfin.com/MA/Boston/35-Fay-St-02118/unit-E-511/home/21717537,MLS PIN,72333423,N,Y,42.3431659,-71.0651908
PAST SALE,June-7-2018,Condo/Co-op,2 Avery St Unit 35B,Boston,MA,02111,1310000,1,2.0,Midtown,1032,,2000,59,1269,1579,Sold,,,http://www.redfin.com/MA/Boston/2-Avery-St-02111/unit-35B/home/9313210,MLS PIN,72254863,N,Y,42.3528703,-71.0629976
PAST SALE,June-29-2018,Condo/Co-op,140 Shawmut Ave Unit 3A,Boston,MA,02118,1750000,3,2.5,South End,1859,,2017,37,941,946,Sold,,,http://www.redfin.com/MA/Boston/140-Shawmut-Ave-02118/unit-3A/home/144161805,MLS PIN,72289200,N,Y,42.3459437,-71.06581
PAST SALE,,Condo/Co-op,1180 Washington St,Boston,MA,02118,955000,1,1.0,,1025,,1999,,932,,,,,http://www.redfin.com/MA/Boston/1180-Washington-St-02118/home/9302030,,,N,Y,42.3431283,-71.0664128
PAST SALE,July-9-2018,Condo/Co-op,242 Shawmut Ave #1,Boston,MA,02118,1227500,2,2.5,South End,1396,,1900,27,879,523,Sold,,,http://www.redfin.com/MA/Boston/242-Shawmut-Ave-02118/unit-1/home/145549098,MLS PIN,72319007,N,Y,42.3435522,-71.0678604
PAST SALE,,Condo/Co-op,242 Shawmut Ave #2,Boston,MA,02118,1200000,2,2.0,,1046,,2012,,1147,,,,,http://www.redfin.com/MA/Boston/242-Shawmut-Ave-02118/unit-2/home/40473148,,,N,Y,42.3435377,-71.0678605
PAST SALE,June-21-2018,Condo/Co-op,1 Avery St Unit 31D,Boston,MA,02111,2700000,2,2.5,Midtown,2036,2036,2000,45,1326,3106,Sold,,,http://www.redfin.com/MA/Boston/1-Avery-St-02111/unit-31D/home/9312645,MLS PIN,72326933,N,Y,42.3534171,-71.06251
PAST SALE,June-20-2018,Condo/Co-op,1 Nassau St #1302,Boston,MA,02111,525000,1,1.0,Midtown,488,488,2004,46,1076,469,Sold,,,http://www.redfin.com/MA/Boston/1-Nassau-St-02111/unit-1302/home/9329627,MLS PIN,72308204,N,Y,42.348524,-71.0629362
PAST SALE,,Condo/Co-op,1 Charles St S Unit 408,Boston,MA,02116,650000,1,1.0,,607,,2004,,1071,,,,,http://www.redfin.com/MA/Boston/1-Charles-St-S-02116/unit-408/home/9330078,,,N,Y,42.3513199,-71.0674769
PAST SALE,May-23-2018,Condo/Co-op,580 Washington St #709,Boston,MA,02111,1485000,2,2.0,Midtown,1228,,2013,74,1209,1043,Sold,,,http://www.redfin.com/MA/Boston/580-Washington-St-02111/unit-709/home/58794391,MLS PIN,72289210,N,Y,42.3533804,-71.0619769
PAST SALE,July-19-2018,Condo/Co-op,1 Avery St Unit 16G,Boston,MA,02111,1495000,2,2.5,Midtown,1402,1402,2000,17,1066,1891,Sold,,,http://www.redfin.com/MA/Boston/1-Avery-St-02111/unit-16G/home/9312471,MLS PIN,72222517,N,Y,42.3534171,-71.06251
PAST SALE,June-28-2018,Condo/Co-op,1180 Washington St #302,Boston,MA,02118,965000,1,1.0,South End,1065,,1999,38,906,478,Sold,,,http://www.redfin.com/MA/Boston/1180-1200-Washington-St-02118/unit-302/home/9301948,MLS PIN,72323790,N,Y,42.3431334,-71.066215
PAST SALE,July-23-2018,Townhouse,22 Bradford St #2,Boston,MA,02118,1065000,2,1.0,South End,912,912,1875,13,1168,350,Sold,,,http://www.redfin.com/MA/Boston/22-Bradford-St-02118/unit-2/home/9313781,MLS PIN,72335075,N,Y,42.342718,-71.0689308
PAST SALE,July-24-2018,Condo/Co-op,90 Wareham St #216,Boston,MA,02118,600000,1,1.0,South End,732,,2006,12,820,349,Sold,,,http://www.redfin.com/MA/Boston/90-Wareham-St-02118/unit-216/home/39912792,MLS PIN,72345760,N,Y,42.3389559,-71.06636
PAST SALE,July-24-2018,Condo/Co-op,258 Shawmut Ave #3,Boston,MA,02118,789000,2,1.0,South End,700,700,1885,12,1127,200,Sold,,,http://www.redfin.com/MA/Boston/258-Shawmut-Ave-02118/unit-3/home/9281350,MLS PIN,72318947,N,Y,42.3432389,-71.0684175
PAST SALE,July-31-2018,Condo/Co-op,580 Washington St #212,Boston,MA,02111,998000,1,1.0,Midtown,854,854,2013,5,1169,763,Sold,,,http://www.redfin.com/MA/Boston/580-Washington-St-02111/unit-212/home/146115693,MLS PIN,72353764,N,Y,42.3532796,-71.0623509
PAST SALE,July-27-2018,Condo/Co-op,41 Pearl St #2,Boston,MA,02129,630000,1,1.0,Charlestown,703,,1870,9,896,159,Sold,,,http://www.redfin.com/MA/Boston/41-Pearl-St-02129/unit-2/home/9046359,MLS PIN,72345828,N,Y,42.3789215,-71.0638978
PAST SALE,July-30-2018,Condo/Co-op,88 Bartlett #2,Boston,MA,02129,780000,2,2.0,Boston,988,,1905,6,789,215,Sold,,,http://www.redfin.com/MA/Boston/88-Bartlett-St-02129/unit-2/home/9046902,MLS PIN,72340856,N,Y,42.3786573,-71.0651309
PAST SALE,,Condo/Co-op,99 Bartlett St #1,Boston,MA,02129,431500,1,1.0,,550,,1900,,785,,,,,http://www.redfin.com/MA/Boston/99-Bartlett-St-02129/unit-1/home/9060694,,,N,Y,42.3791265,-71.0655517
PAST SALE,July-27-2018,Condo/Co-op,32 Myrtle St Unit 2-1,Boston,MA,02114,700000,1,1.0,Beacon Hill,644,644,1899,9,1087,250,Sold,,,http://www.redfin.com/MA/Boston/32-Myrtle-St-02114/unit-2-1/home/9257874,MLS PIN,72341673,N,Y,42.3592232,-71.0656609
PAST SALE,June-6-2018,Condo/Co-op,9 Appleton St #301,Boston,MA,02116,645000,1,1.0,South End,620,620,1880,60,1040,255,Sold,,,http://www.redfin.com/MA/Boston/9-Appleton-St-02116/unit-301/home/9262384,MLS PIN,72303422,N,Y,42.3464641,-71.0700432
PAST SALE,June-5-2018,Condo/Co-op,1 Nassau #2210,Boston,MA,02111,630000,1,1.0,Midtown,585,,2004,61,1077,620,Sold,,,http://www.redfin.com/MA/Boston/1-Nassau-St-02111/unit-2210/home/9329547,MLS PIN,72293626,N,Y,42.348524,-71.0629362
PAST SALE,June-1-2018,Condo/Co-op,1 Nassau St #2208,Boston,MA,02111,1288000,2,2.5,Boston,1543,1543,2004,65,835,2039,Sold,,,http://www.redfin.com/MA/Boston/1-Nassau-St-02111/unit-2208/home/11737198,MLS PIN,72218777,N,Y,42.348524,-71.0629362
PAST SALE,July-30-2018,Condo/Co-op,77 Tyler #1,Boston,MA,02111,400000,2,1.0,Boston,500,,1899,6,800,360,Sold,,,http://www.redfin.com/MA/Boston/77-Tyler-St-02111/unit-1/home/11838563,MLS PIN,72307261,N,Y,42.3491483,-71.0615952
PAST SALE,July-24-2018,Condo/Co-op,3 Avery St #305,Boston,MA,02111,850000,2,2.0,Midtown,1268,1268,2004,12,670,2005,Sold,,,http://www.redfin.com/MA/Boston/3-Avery-St-02111/unit-305/home/11838658,MLS PIN,72333198,N,Y,42.353596,-71.0628695
PAST SALE,June-14-2018,Condo/Co-op,1180-1200 Washington St #407,Boston,MA,02118,953500,1,1.0,South End,1025,1025,1999,52,930,484,Sold,,,http://www.redfin.com/MA/Boston/1180-1200-Washington-St-02118/unit-407/home/12261549,MLS PIN,72232323,N,Y,42.3431334,-71.066215
PAST SALE,August-1-2018,Condo/Co-op,1200 Washington St #409,Boston,MA,02118,1199000,1,1.5,South End,1587,1587,1999,4,756,752,Sold,,,http://www.redfin.com/MA/Boston/1180-1200-Washington-St-02118/unit-409/home/12416554,MLS PIN,72320066,N,Y,42.3431334,-71.066215
PAST SALE,,Townhouse,31 Warren St,Boston,MA,02129,1675000,3,2.5,,2119,2119,2013,,790,,,,,http://www.redfin.com/MA/Boston/31-Warren-St-02129/home/45117159,,,N,Y,42.3734651,-71.0611375
PAST SALE,,Single Family Residential,51 Sullivan St,Charlestown,MA,02129,1650000,3,3.0,,2088,5999,1985,,790,,,,,http://www.redfin.com/MA/Charlestown/51-Sullivan-St-02129/home/9046892,,,N,Y,42.3786223,-71.0654462
PAST SALE,July-12-2018,Condo/Co-op,46 Dwight #2,Boston,MA,02116,670000,1,1.0,Boston,635,,1900,24,1055,159,Sold,,,http://www.redfin.com/MA/Boston/46-Dwight-St-02118/unit-2/home/9280617,MLS PIN,72326128,N,Y,42.3444128,-71.0695075
PAST SALE,July-12-2018,Condo/Co-op,110 Stuart St Unit 17E,Boston,MA,02116,1490000,2,2.0,Back Bay,1286,,2009,24,1159,1459,Sold,,,http://www.redfin.com/MA/Boston/110-Stuart-St-02116/unit-17E/home/39913480,MLS PIN,72285844,N,Y,42.3509572,-71.0654038
PAST SALE,July-10-2018,Townhouse,29 Grove St #7,Boston,MA,02114,525000,1,1.0,Beacon Hill,460,460,1899,26,1141,192,Sold,,,http://www.redfin.com/MA/Boston/29-Grove-St-02114/unit-7/home/39846872,MLS PIN,72341052,N,Y,42.3601265,-71.0687467
PAST SALE,,Condo/Co-op,580 Washington St Unit 712,Boston,MA,02111,968000,1,1.0,,854,,2013,,1133,,,,,http://www.redfin.com/MA/Boston/580-Washington-St-02111/unit-712/home/85680530,,,N,Y,42.3533804,-71.0619769
PAST SALE,July-31-2018,Condo/Co-op,1280 Washington #502,Boston,MA,02118,2385000,4,2.0,South End,2416,,1900,5,987,855,Sold,,,http://www.redfin.com/MA/Boston/1280-1284-Washington-St-02118/unit-502/home/28936491,MLS PIN,72287524,N,Y,42.3420039,-71.0675124
PAST SALE,May-31-2018,Condo/Co-op,164 W Concord St #6,Boston,MA,02118,5125000,4,3.5,South End,4897,,1860,66,1047,1517,Sold,,,http://www.redfin.com/MA/Boston/164-W-Concord-St-02118/unit-6/home/101819037,MLS PIN,72300292,N,Y,42.3402136,-71.0777064
PAST SALE,May-15-2018,Single Family Residential,27 Cumberland St,Boston,MA,02116,2630000,5,2.5,Back Bay,3206,2008,1888,82,820,,Sold,,,http://www.redfin.com/MA/Boston/27-Cumberland-St-02115/home/9255134,MLS PIN,72296885,N,Y,42.343218,-71.081672
PAST SALE,,Condo/Co-op,97 W Springfield St #2,Boston,MA,02118,2060000,2,3.5,,1974,,2012,,1044,,,,,http://www.redfin.com/MA/Boston/97-W-Springfield-St-02118/unit-2/home/85680271,,,N,Y,42.337976,-71.0772941
PAST SALE,May-17-2018,Townhouse,50 Montgomery St #1,Boston,MA,02116,425000,0,1.0,South End,325,435,1900,80,1308,83,Sold,,,http://www.redfin.com/MA/Boston/50-Montgomery-St-02116/unit-1/home/40525169,MLS PIN,72306022,N,Y,42.3435119,-71.07357
PAST SALE,June-15-2018,Townhouse,28 Union Park Unit A,Boston,MA,02118,3334460,3,3.5,South End,2465,,1900,51,1353,562,Sold,,,http://www.redfin.com/MA/Boston/28-Union-Park-02118/unit-A/home/67222678,MLS PIN,72306601,N,Y,42.3427558,-71.0716574
PAST SALE,June-21-2018,Townhouse,2 Cumston St #2,Boston,MA,02118,2530000,3,2.5,South End,2253,,2000,45,1123,396,Sold,,,http://www.redfin.com/MA/Boston/2-Cumston-St-02118/unit-2/home/137068559,MLS PIN,72313816,N,Y,42.3388764,-71.0748853
PAST SALE,June-22-2018,Condo/Co-op,201 W Brookline #102,Boston,MA,02118,2925000,3,3.0,South End,2309,,2018,44,1267,991,Sold,,,http://www.redfin.com/MA/Boston/201-W-Brookline-St-02118/unit-102/home/145239505,MLS PIN,72299028,N,Y,42.3435255,-71.0764028
PAST SALE,June-1-2018,Townhouse,21 Union Park #3,Boston,MA,02118,2552000,3,2.5,South End,1877,,1900,65,1360,312,Sold,,,http://www.redfin.com/MA/Boston/21-Union-Park-02118/unit-3/home/39913805,MLS PIN,72293487,N,Y,42.3428756,-71.0709675
PAST SALE,May-31-2018,Condo/Co-op,39 Upton St #2,Boston,MA,02118,920000,1,1.0,South End,750,750,1900,66,1227,183,Sold,,,http://www.redfin.com/MA/Boston/39-Upton-St-02118/unit-2/home/9282187,MLS PIN,72320008,N,Y,42.3427623,-71.0724217
PAST SALE,May-31-2018,Single Family Residential,1 Pelham Ter,Boston,MA,02118,2600000,4,2.5,South End,2491,2075,1890,66,1044,,Sold,,,http://www.redfin.com/MA/Boston/1-Pelham-Ter-02118/home/9282298,MLS PIN,72290974,N,Y,42.341381,-71.07081
PAST SALE,June-8-2018,Condo/Co-op,42 W Newton St Unit 2-14,Boston,MA,02118,940000,2,1.0,South End,819,,1910,58,1148,332,Sold,,,http://www.redfin.com/MA/Boston/42-W-Newton-St-02118/unit-2-14/home/11837204,MLS PIN,72314967,N,Y,42.3392684,-71.0743166
PAST SALE,July-2-2018,Condo/Co-op,7 E Springfield St Unit 4B,Boston,MA,02118,1405000,2,2.0,South End,1130,,2018,34,1243,518,Sold,,,http://www.redfin.com/MA/Boston/7-E-Springfield-St-02118/unit-4B/home/145723917,MLS PIN,72330928,N,Y,42.3367484,-71.0762626
PAST SALE,June-14-2018,Condo/Co-op,1682 Washington St #8,Boston,MA,02118,945500,2,2.0,South End,1045,1045,1875,52,905,386,Sold,,,http://www.redfin.com/MA/Boston/1682-Washington-St-02118/unit-8/home/9299065,MLS PIN,72296917,N,Y,42.3371064,-71.075451
PAST SALE,June-15-2018,Condo/Co-op,12 Claremont Park #4,Boston,MA,02118,740000,1,1.0,South End,680,,1860,51,1088,276,Sold,,,http://www.redfin.com/MA/Boston/12-Claremont-Park-02118/unit-4/home/9283536,MLS PIN,72306972,N,Y,42.3419406,-71.0813122
PAST SALE,June-11-2018,Condo/Co-op,150 Worcester St #3,Boston,MA,02118,835126,3,1.0,South End,924,924,1900,55,904,293,Sold,,,http://www.redfin.com/MA/Boston/150-Worcester-St-02118/unit-3/home/9283828,MLS PIN,72303197,N,Y,42.3411961,-71.080045
PAST SALE,June-15-2018,Single Family Residential,120 W Newton,Boston,MA,02118,3380000,3,2.5,South End,3010,1978,1860,51,1123,,Sold,,,http://www.redfin.com/MA/Boston/120-W-Newton-St-02118/home/9284575,MLS PIN,72287304,N,Y,42.3416731,-71.077134
PAST SALE,June-14-2018,Condo/Co-op,255 Northampton St #101,Boston,MA,02118,327368,0,1.0,South End,985,985,2006,52,332,154,Sold,,,http://www.redfin.com/MA/Boston/255-Northampton-St-02118/unit-101/home/21621744,MLS PIN,72295253,N,Y,42.3394056,-71.0814167
PAST SALE,,Condo/Co-op,691 Massachusetts Ave Unit 106,Boston,MA,02118,692000,1,1.0,,1084,,2010,,638,,,,,http://www.redfin.com/MA/Boston/691-Massachusetts-Ave-02118/unit-106/home/45407143,,,N,Y,42.335242,-71.075829
PAST SALE,,Condo/Co-op,535 Shawmut Ave #4,Boston,MA,02118,925000,2,1.5,,918,,1820,,1008,,,,,http://www.redfin.com/MA/Boston/535-Shawmut-Ave-02118/unit-4/home/9287494,,,N,Y,42.3372624,-71.0783868
PAST SALE,,Condo/Co-op,654 Tremont St #1,Boston,MA,02118,2400000,3,2.5,,1896,,1920,,1266,,,,,http://www.redfin.com/MA/Boston/654-Tremont-St-02118/unit-1/home/9286275,,,N,Y,42.3416605,-71.0752827
PAST SALE,June-18-2018,Single Family Residential,553 Shawmut Ave,Boston,MA,02118,1275000,3,2.5,South End,2583,1365,1890,48,494,,Sold,,,http://www.redfin.com/MA/Boston/553-Shawmut-Ave-02118/home/9287680,MLS PIN,72302005,N,Y,42.336877,-71.0790026
PAST SALE,,Single Family Residential,38 Greenwich Park,Boston,MA,02118,415000,2,1.0,,964,500,1890,,430,,,,,http://www.redfin.com/MA/Boston/38-Greenwich-Park-02118/home/9294897,,,N,Y,42.3428722,-71.0812774
PAST SALE,June-19-2018,Condo/Co-op,243 W Newton St #1,Boston,MA,02116,1395000,2,2.5,Back Bay,1435,,1890,47,972,449,Sold,,,http://www.redfin.com/MA/Boston/243-W-Newton-St-02116/unit-1/home/9272689,MLS PIN,72331145,N,Y,42.3446755,-71.0802948
PAST SALE,June-19-2018,Condo/Co-op,41 Upton St #1,Boston,MA,02118,1760000,2,2.0,South End,1560,1560,1890,47,1128,495,Sold,,,http://www.redfin.com/MA/Boston/41-Upton-St-02118/unit-1/home/9282199,MLS PIN,72315589,N,Y,42.342824,-71.0724688
PAST SALE,June-21-2018,Townhouse,17 Worcester St #1,Boston,MA,02118,780000,1,1.0,South End,800,,1899,45,975,250,Sold,,,http://www.redfin.com/MA/Boston/17-Worcester-St-02118/unit-1/home/9300890,MLS PIN,72318718,N,Y,42.3379072,-71.0759544
PAST SALE,June-20-2018,Single Family Residential,102 Saint Botolph St,Boston,MA,02115,2950000,5,4.0,South End,3365,1563,1880,46,877,,Sold,,,http://www.redfin.com/MA/Boston/102-St-Botolph-St-02115/home/9271035,MLS PIN,72315208,N,Y,42.344519,-71.080926
PAST SALE,June-22-2018,Condo/Co-op,144 Warren Ave #2,Boston,MA,02116,4350000,4,3.5,South End,3227,3227,1900,44,1348,725,Sold,,,http://www.redfin.com/MA/Boston/144-Warren-Ave-02116/unit-2/home/52670598,MLS PIN,72293719,N,Y,42.3439065,-71.0748712
PAST SALE,May-17-2018,Townhouse,15 Holyoke St #1,Boston,MA,02116,690000,1,1.0,South End,805,,1900,80,857,180,Sold,,,http://www.redfin.com/MA/Boston/15-Holyoke-St-02116/unit-1/home/9233497,MLS PIN,72291043,N,Y,42.3448664,-71.0776414
PAST SALE,May-18-2018,Condo/Co-op,107 Appleton St #2,Boston,MA,02116,660000,1,1.0,South End,604,604,1890,79,1093,102,Sold,,,http://www.redfin.com/MA/Boston/107-Appleton-St-02116/unit-2/home/9251525,MLS PIN,72285625,N,Y,42.3454627,-71.0741591
PAST SALE,May-14-2018,Condo/Co-op,9 Rutland Sq #1,Boston,MA,02118,750000,1,1.0,South End,805,,1880,83,932,140,Sold,,,http://www.redfin.com/MA/Boston/9-Rutland-Sq-02118/unit-1/home/9284385,MLS PIN,72296551,N,Y,42.3414877,-71.0775176
PAST SALE,,Condo/Co-op,455 Massachusetts Ave Apt 3,Boston,MA,02118,830000,2,1.0,,763,,1899,,1088,,,,,http://www.redfin.com/MA/Boston/455-Massachusetts-Ave-02118/unit-3/home/9301450,,,N,Y,42.3401184,-71.0815716
PAST SALE,May-16-2018,Condo/Co-op,668 Tremont St #2,Boston,MA,02118,995000,2,1.0,South End,840,840,1865,81,1185,337,Sold,,,http://www.redfin.com/MA/Boston/668-Tremont-St-02118/unit-2/home/11837535,MLS PIN,72304334,N,Y,42.3412815,-71.0759618
PAST SALE,,Condo/Co-op,17 Cazenove St Apt 408,Boston,MA,02116,725000,1,1.5,,775,,1888,,935,,,,,http://www.redfin.com/MA/Boston/17-Cazenove-St-02116/unit-408/home/11836754,,,N,Y,42.3472131,-71.0729092
PAST SALE,May-23-2018,Condo/Co-op,17 Cazenove St #202,Boston,MA,02116,405000,0,1.0,South End,256,256,1890,74,1582,182,Sold,,,http://www.redfin.com/MA/Boston/17-Cazenove-St-02116/unit-202/home/9243104,MLS PIN,72319241,N,Y,42.3472131,-71.0729092
PAST SALE,May-25-2018,Condo/Co-op,517 Columbus Ave #5,Boston,MA,02118,1040000,2,1.0,South End,778,,1899,72,1337,389,Sold,,,http://www.redfin.com/MA/Boston/517-Columbus-Ave-02118/unit-5/home/9283310,MLS PIN,72307271,N,Y,42.3422203,-71.0801302
PAST SALE,,Condo/Co-op,686 Tremont St Apt 1,Boston,MA,02118,1346500,2,2.0,,1215,,1899,,1108,,,,,http://www.redfin.com/MA/Boston/686-Tremont-St-02118/unit-1/home/12478956,,,N,Y,42.3408883,-71.0767772
PAST SALE,May-23-2018,Condo/Co-op,285 Columbus Ave #801,Boston,MA,02116,928800,1,1.0,Back Bay,856,856,2008,74,1085,703,Sold,,,http://www.redfin.com/MA/Boston/285-Columbus-Ave-02116/unit-801/home/16871988,MLS PIN,72302462,N,Y,42.3472047,-71.0740275
PAST SALE,July-17-2018,Condo/Co-op,201 W Brookline #101,Boston,MA,02118,1985000,2,2.0,South End,1539,,2018,19,1290,660,Sold,,,http://www.redfin.com/MA/Boston/201-W-Brookline-St-02118/unit-101/home/145239504,MLS PIN,72299027,N,Y,42.3435255,-71.0764028
PAST SALE,July-18-2018,Condo/Co-op,530 Mass Ave Unit 1A,Boston,MA,02118,655000,1,1.0,South End,754,,1890,18,869,207,Sold,,,http://www.redfin.com/MA/Boston/530-Massachusetts-Ave-02118/unit-1A/home/9287250,MLS PIN,72341604,N,Y,42.3389624,-71.0791618
PAST SALE,June-29-2018,Condo/Co-op,529 Columbus Ave #14,Boston,MA,02118,505125,1,1.0,South End,481,,1900,37,1050,213,Sold,,,http://www.redfin.com/MA/Boston/529-Columbus-Ave-02118/unit-14/home/9301492,MLS PIN,72314475,N,Y,42.3419856,-71.0804172
PAST SALE,June-29-2018,Condo/Co-op,75 Waltham St #1,Boston,MA,02118,619000,1,1.0,South End,710,710,1890,37,872,153,Sold,,,http://www.redfin.com/MA/Boston/75-Waltham-St-02118/unit-1/home/9281015,MLS PIN,72311564,N,Y,42.3432692,-71.0704041
PAST SALE,June-28-2018,Condo/Co-op,758 Tremont St #2,Boston,MA,02118,860000,2,1.0,South End,920,,1899,38,935,275,Sold,,,http://www.redfin.com/MA/Boston/758-Tremont-St-02118/unit-2/home/9286862,MLS PIN,72315621,N,Y,42.3396539,-71.0790359
PAST SALE,,Condo/Co-op,93 Pembroke St #1,Boston,MA,02118,2645000,3,2.5,,2382,,1865,,1110,,,,,http://www.redfin.com/MA/Boston/93-Pembroke-St-02118/unit-1/home/9282731,,,N,Y,42.3422635,-71.076268
PAST SALE,,Condo/Co-op,701 Massachusetts Ave #20,Boston,MA,02118,435000,1,1.0,,436,,1899,,998,,,,,http://www.redfin.com/MA/Boston/701-Massachusetts-Ave-02118/unit-20/home/11510332,,,N,Y,42.3349461,-71.0755628
PAST SALE,June-29-2018,Condo/Co-op,1597 Washington St #604,Boston,MA,02118,685000,1,1.0,South End,736,,2000,37,931,386,Sold,,,http://www.redfin.com/MA/Boston/1597-Washington-St-02118/unit-604/home/9302307,MLS PIN,72311581,N,Y,42.3384412,-71.0749684
PAST SALE,May-31-2018,Condo/Co-op,22 Hanson St #3,Boston,MA,02118,1449000,2,1.5,South End,1232,,1899,66,1176,212,Sold,,,http://www.redfin.com/MA/Boston/22-Hanson-St-02118/unit-3/home/9281003,MLS PIN,72306723,N,Y,42.3435766,-71.0703886
PAST SALE,June-1-2018,Condo/Co-op,37 E Concord St #3,Boston,MA,02118,740000,2,1.0,South End,655,655,1899,65,1130,175,Sold,,,http://www.redfin.com/MA/Boston/37-E-Concord-St-02118/unit-3/home/12431722,MLS PIN,72310261,N,Y,42.3369957,-71.0741758
PAST SALE,June-1-2018,Condo/Co-op,74 Commonwealth Ave #6,Boston,MA,02116,740000,1,1.0,Back Bay,705,,1900,65,1050,367,Sold,,,http://www.redfin.com/MA/Boston/74-Commonwealth-Ave-02116/unit-6/home/18982894,MLS PIN,72317824,N,Y,42.3522967,-71.0750921
PAST SALE,July-31-2018,Condo/Co-op,150 Appleton St Unit 2B,Boston,MA,02116,1335000,2,2.0,South End,938,938,1869,5,1423,499,Sold,,,http://www.redfin.com/MA/Boston/150-Appleton-St-02116/unit-2B/home/9253396,MLS PIN,72323173,N,Y,42.3446398,-71.0757528
PAST SALE,June-4-2018,Townhouse,146 Chandler St #2,Boston,MA,02116,775000,1,1.0,South End,602,602,1899,62,1287,185,Sold,,,http://www.redfin.com/MA/Boston/146-Chandler-St-02116/unit-2/home/9232605,MLS PIN,72295496,N,Y,42.345746,-71.0747903
PAST SALE,July-30-2018,Townhouse,76 Appleton St #3,Boston,MA,02116,805000,1,1.0,South End,770,770,1910,6,1045,240,Sold,,,http://www.redfin.com/MA/Boston/76-Appleton-St-02116/unit-3/home/9242551,MLS PIN,72318116,N,Y,42.3455033,-71.072919
PAST SALE,July-19-2018,Condo/Co-op,261 Marlborough St #8,Boston,MA,02116,820000,1,1.0,Back Bay,690,690,1930,17,1188,587,Sold,,,http://www.redfin.com/MA/Boston/261-Marlborough-St-02116/unit-8/home/9247360,MLS PIN,72336202,N,Y,42.3520257,-71.082705
PAST SALE,July-27-2018,Condo/Co-op,495 Columbus Ave #2,Boston,MA,02118,1102000,2,1.0,South End,944,944,1899,9,1167,354,Sold,,,http://www.redfin.com/MA/Boston/495-Columbus-Ave-02118/unit-2/home/9283044,MLS PIN,72343665,N,Y,42.3427541,-71.0795116
PAST SALE,,Townhouse,8 Rutland Sq #1,Boston,MA,02118,3100000,2,2.0,,1320,1320,1900,,2348,,,,,http://www.redfin.com/MA/Boston/8-Rutland-Sq-02118/unit-1/home/9284370,,,N,Y,42.3412142,-71.0779586
PAST SALE,July-26-2018,Multi-Family (5+ Unit),34-36 E Newton,Boston,MA,02118,3500000,7,9.0,South End,4065,,1900,10,861,,Sold,,,http://www.redfin.com/MA/Boston/34-E-Newton-St-02118/unit-4/home/9285034,MLS PIN,72308499,N,Y,42.3379877,-71.0723858
PAST SALE,July-31-2018,Condo/Co-op,26 Worcester Sq #1,Boston,MA,02118,1050000,2,1.5,South End,1425,,1900,5,737,267,Sold,,,http://www.redfin.com/MA/Boston/26-Worcester-Sq-02118/unit-1/home/9285120,MLS PIN,72309351,N,Y,42.3366378,-71.0741764
PAST SALE,,Condo/Co-op,19 Worcester St #2,Boston,MA,02118,875000,2,1.0,,876,,1875,,999,,,,,http://www.redfin.com/MA/Boston/19-Worcester-St-02118/unit-2/home/9327254,,,N,Y,42.3380923,-71.0760675
PAST SALE,,Condo/Co-op,189 Warren Ave Apt 1,Boston,MA,02116,1373000,3,2.5,,1373,,1899,,1000,,,,,http://www.redfin.com/MA/Boston/189-Warren-Ave-02116/unit-1/home/11837445,,,N,Y,42.3438571,-71.0768704
PAST SALE,July-20-2018,Condo/Co-op,682 Tremont St #3,Boston,MA,02118,850000,2,1.0,South End,785,785,1900,16,1083,266,Sold,,,http://www.redfin.com/MA/Boston/682-Tremont-St-02118/unit-3/home/17906598,MLS PIN,72303743,N,Y,42.3409635,-71.0766497
PAST SALE,July-31-2018,Condo/Co-op,21 Father Francis Gilday St #504,Boston,MA,02118,790000,1,1.5,South End,1023,,1856,5,772,643,Sold,,,http://www.redfin.com/MA/Boston/21-Father-Francis-Gilday-St-02118/unit-504/home/18713622,MLS PIN,72322737,N,Y,42.3371558,-71.0732041
PAST SALE,June-15-2018,Condo/Co-op,72 Chandler St #1,Boston,MA,02116,1310000,2,2.5,South End,1286,1286,1910,51,1019,300,Sold,,,http://www.redfin.com/MA/Boston/72-Chandler-St-02116/unit-1/home/9313409,MLS PIN,72320068,N,Y,42.3464808,-71.0720625
PAST SALE,,Condo/Co-op,285 Columbus Ave Unit 808,Boston,MA,02116,1480000,2,2.0,,1253,,2008,,1181,,,,,http://www.redfin.com/MA/Boston/285-Columbus-Ave-02116/unit-808/home/16871919,,,N,Y,42.3472047,-71.0740275
PAST SALE,,Condo/Co-op,14 Union Park,Boston,MA,02118,3334461,3,2.5,,2465,,1900,,1353,,,,,http://www.redfin.com/MA/Boston/14-Union-Park-02118/home/40353009,,,N,Y,42.3424069,-71.0712882
PAST SALE,June-12-2018,Condo/Co-op,691 Massachusetts Ave #506,Boston,MA,02118,605500,1,1.0,South End,607,607,2010,54,998,314,Sold,,,http://www.redfin.com/MA/Boston/691-Massachusetts-Ave-02118/unit-506/home/35657972,MLS PIN,72307070,N,Y,42.3351902,-71.0758155
PAST SALE,June-15-2018,Condo/Co-op,208 W Canton St #1,Boston,MA,02116,1800000,3,2.0,South End,1467,1467,1997,51,1227,277,Sold,,,http://www.redfin.com/MA/Boston/208-W-Canton-St-02116/unit-1/home/9233466,MLS PIN,72303182,N,Y,42.3449432,-71.0771237
PAST SALE,,Condo/Co-op,38 St Botolph St #27,Boston,MA,02116,535000,1,1.0,,364,,1925,,1470,,,,,http://www.redfin.com/MA/Boston/38-St-Botolph-St-02116/unit-27/home/9233888,,,N,Y,42.3462039,-71.0788492
PAST SALE,June-15-2018,Condo/Co-op,35 Lawrence St #4,Boston,MA,02116,625000,1,1.0,South End,580,580,1873,51,1078,305,Sold,,,http://www.redfin.com/MA/Boston/35-Lawrence-St-02116/unit-4/home/9251642,MLS PIN,72314841,N,Y,42.3458006,-71.0736229
PAST SALE,June-15-2018,Condo/Co-op,35 Worcester St #1,Boston,MA,02118,950000,2,1.5,South End,1170,1170,1900,51,812,360,Sold,,,http://www.redfin.com/MA/Boston/35-Worcester-St-02118/unit-1/home/9286684,MLS PIN,72318003,N,Y,42.3385825,-71.076612
PAST SALE,June-29-2018,Condo/Co-op,28 Rutland Sq #1,Boston,MA,02118,2695000,3,3.5,South End,2381,2381,1899,37,1132,456,Sold,,,http://www.redfin.com/MA/Boston/28-Rutland-Sq-02118/unit-1/home/21491290,MLS PIN,72309546,N,Y,42.3416297,-71.0783595
PAST SALE,July-13-2018,Townhouse,110 W Concord St #1,Boston,MA,02118,860000,2,1.0,South End,950,950,1880,23,905,208,Sold,,,http://www.redfin.com/MA/Boston/110-W-Concord-St-02118/unit-1/home/9289978,MLS PIN,72336250,N,Y,42.3390014,-71.0766381
PAST SALE,July-9-2018,Condo/Co-op,40 Isabella St Unit 1E,Boston,MA,02116,2290000,3,3.0,Back Bay,2400,2400,1904,27,954,655,Sold,,,http://www.redfin.com/MA/Boston/40-Isabella-St-02116/unit-1E/home/9235740,MLS PIN,72306807,N,Y,42.348495,-71.0710307
PAST SALE,July-5-2018,Condo/Co-op,565 Massachusetts Ave #2,Boston,MA,02118,870000,2,1.0,South End,1134,1134,1920,31,767,598,Sold,,,http://www.redfin.com/MA/Boston/565-Massachusetts-Ave-02118/unit-2/home/9227395,MLS PIN,72329961,N,Y,42.3376042,-71.0788367
PAST SALE,May-14-2018,Condo/Co-op,52 Sanborn Ave #52,Boston,MA,02132,460000,3,1.0,West Roxbury,1108,1108,1940,83,415,142,Sold,,,http://www.redfin.com/MA/Boston/52-Sanborn-Ave-02132/unit-52/home/144969901,MLS PIN,72287391,N,Y,42.2809099,-71.1646772
PAST SALE,May-23-2018,Townhouse,303 Grove #9,Boston,MA,02132,365000,2,1.5,West Roxbury,1424,,1983,74,256,285,Sold,,,http://www.redfin.com/MA/Boston/303-Grove-St-02132/unit-9/home/145271311,MLS PIN,72302312,N,Y,42.2584744,-71.1565812
PAST SALE,,Single Family Residential,2231 Centre St,West Roxbury,MA,02132,415000,2,1.0,,890,3990,1940,,466,,,,,http://www.redfin.com/MA/West-Roxbury/2231-Centre-St-02132/home/9309046,,,N,Y,42.2737572,-71.1607494
PAST SALE,June-5-2018,Single Family Residential,36-A Hastings St,Boston,MA,02132,580000,3,1.5,West Roxbury,1274,4620,1960,61,455,,Sold,,,http://www.redfin.com/MA/Boston/36A-Hastings-St-02132/home/145248266,MLS PIN,72300011,N,Y,42.2862448,-71.1569897
PAST SALE,June-7-2018,Townhouse,5255 WASHINGTON St #5255,Boston,MA,02132,352000,2,1.5,West Roxbury,1156,,1988,59,304,313,Sold,,,http://www.redfin.com/MA/Boston/5255-Washington-St-02132/unit-5255/home/144951079,MLS PIN,72286839,N,Y,42.2598981,-71.1591364
PAST SALE,May-18-2018,Condo/Co-op,990 VFW Pkwy #401,Boston,MA,02132,510000,2,2.0,West Roxbury,1519,,2011,79,336,380,Sold,,,http://www.redfin.com/MA/West-Roxbury/990-VFW-Pkwy-02132/unit-401/home/39996623,MLS PIN,72287189,N,Y,42.2840965,-71.1718194
PAST SALE,June-8-2018,Condo/Co-op,36 Bryon Rd #1,Boston,MA,02132,305000,2,1.0,West Roxbury's Chestnut Hill,780,780,1955,58,391,340,Sold,,,http://www.redfin.com/MA/Boston/36-Bryon-Rd-02132/unit-1/home/145577635,MLS PIN,72321695,N,Y,42.2797554,-71.1626756
PAST SALE,May-24-2018,Single Family Residential,29 Furbush Rd,Boston,MA,02132,623000,3,2.5,West Roxbury,1632,6162,1995,73,382,,Sold,,,http://www.redfin.com/MA/West-Roxbury/29-Furbush-Rd-02132/home/9200930,MLS PIN,72253306,N,Y,42.2931197,-71.1674796
PAST SALE,May-25-2018,Multi-Family (2-4 Unit),133 Maple St,Boston,MA,02132,920000,6,3.0,West Roxbury,2410,4536,1913,72,382,,Sold,,,http://www.redfin.com/MA/West-Roxbury/133-Maple-St-02132/home/9206408,MLS PIN,72315341,N,Y,42.2911051,-71.1567112
PAST SALE,,Vacant Land,21 Goethe St,West Roxbury,MA,02132,700100,,,,,5000,,,,,,,,http://www.redfin.com/MA/West-Roxbury/21-Goethe-St-02132/home/9221146,,,N,Y,42.2566776,-71.158875
PAST SALE,May-21-2018,Single Family Residential,720 VFW Pkwy,Boston,MA,02132,469900,3,1.0,West Roxbury,1190,7889,1950,76,395,,Sold,,,http://www.redfin.com/MA/West-Roxbury/720-VFW-Pkwy-02132/home/9207453,MLS PIN,72317465,N,Y,42.2926335,-71.1633022
PAST SALE,May-25-2018,Single Family Residential,798 VFW Pkwy,Boston,MA,02132,580000,3,1.5,Brook Farm Neighborhood,1484,5359,1959,72,391,,Sold,,,http://www.redfin.com/MA/West-Roxbury/798-VFW-Pkwy-02132/home/9209983,MLS PIN,72287670,N,Y,42.2908395,-71.166969
PAST SALE,May-25-2018,Multi-Family (2-4 Unit),381 Grove St,Boston,MA,02132,687900,6,3.0,West Roxbury,2983,9984,1900,72,231,,Sold,,,http://www.redfin.com/MA/West-Roxbury/381-Grove-St-02132/home/9221259,MLS PIN,72303226,N,Y,42.2564981,-71.1562414
PAST SALE,June-1-2018,Condo/Co-op,5140 Washington St #1,Boston,MA,02132,225000,1,1.0,West Roxbury,715,,1960,65,315,300,Sold,,,http://www.redfin.com/MA/Boston/5140-Washington-St-02132/unit-1/home/9221579,MLS PIN,72308030,N,Y,42.262381,-71.1552867
PAST SALE,June-1-2018,Single Family Residential,139 Keystone St,Boston,MA,02132,560000,3,2.0,West Roxbury,1662,3920,1960,65,337,,Sold,,,http://www.redfin.com/MA/West-Roxbury/139-Keystone-St-02132/home/9223084,MLS PIN,72313321,N,Y,42.2669953,-71.1653909
PAST SALE,June-7-2018,Single Family Residential,86 HASTINGS St,Boston,MA,02132,1250000,5,3.5,HIGHLANDS,2900,5293,1900,59,431,,Sold,,,http://www.redfin.com/MA/West-Roxbury/86-Hastings-St-02132/home/9209070,MLS PIN,72314908,N,Y,42.2875641,-71.1588463
PAST SALE,,Townhouse,5255 Washington St,West Roxbury,MA,02132,352000,2,1.5,,1156,1650,1988,,304,,,,,http://www.redfin.com/MA/West-Roxbury/5255-Washington-St-02132/home/9201628,,,N,Y,42.2598981,-71.1591364
PAST SALE,June-12-2018,Single Family Residential,34 BAKER St,Boston,MA,02132,485000,3,1.0,West Roxbury,1200,3352,1937,54,404,,Sold,,,http://www.redfin.com/MA/West-Roxbury/34-Baker-St-02132/home/9218439,MLS PIN,72304561,N,Y,42.2715208,-71.1633486
PAST SALE,,Single Family Residential,6 Keystone St,West Roxbury,MA,02132,479000,3,1.5,,1248,2989,1920,,384,,,,,http://www.redfin.com/MA/West-Roxbury/6-Keystone-St-02132/home/9219327,,,N,Y,42.2708974,-71.164277
PAST SALE,June-22-2018,Single Family Residential,212 Stimson St,Boston,MA,02132,495000,3,1.0,West Roxbury,1133,6858,1925,44,437,,Sold,,,http://www.redfin.com/MA/West-Roxbury/212-Stimson-St-02132/home/9220173,MLS PIN,72296816,N,Y,42.263095,-71.166737
PAST SALE,June-22-2018,Single Family Residential,46 KEITH St,Boston,MA,02132,719000,3,1.5,West Roxbury,1903,5000,1934,44,378,,Sold,,,http://www.redfin.com/MA/West-Roxbury/46-Keith-St-02132/home/9210627,MLS PIN,72329027,N,Y,42.287402,-71.167909
PAST SALE,June-18-2018,Single Family Residential,93 Northdale Rd,Boston,MA,02132,468000,3,2.0,West Roxbury,925,4783,1950,48,506,,Sold,,,http://www.redfin.com/MA/West-Roxbury/93-Northdale-Rd-02132/home/9219145,MLS PIN,72307381,N,Y,42.2694532,-71.1668878
PAST SALE,May-15-2018,Single Family Residential,1 Sunapee Ln,Boston,MA,02132,667000,3,3.0,West Roxbury,3200,6011,1999,82,208,,Sold,,,http://www.redfin.com/MA/Boston/1-Sunapee-Ln-02108/home/11736509,MLS PIN,72288393,N,Y,42.2598033,-71.1624668
PAST SALE,July-16-2018,Condo/Co-op,841 Lagrange St #4,Boston,MA,02132,529000,2,1.5,Boston,1168,,2010,20,453,282,Sold,,,http://www.redfin.com/MA/West-Roxbury/841-Lagrange-St-02132/unit-4/home/45443653,MLS PIN,72315627,N,Y,42.2930754,-71.1698468
PAST SALE,July-20-2018,Single Family Residential,8 Earnshaw St,Boston,MA,02132,515000,3,2.0,West Roxbury,1142,4608,1920,16,451,,Sold,,,http://www.redfin.com/MA/West-Roxbury/8-Earnshaw-St-02132/home/9217377,MLS PIN,72324077,N,Y,42.2748736,-71.1635459
PAST SALE,July-20-2018,Single Family Residential,35 Glenellen Rd,Boston,MA,02132,540000,4,1.0,West Roxbury,1400,3168,1935,16,386,,Sold,,,http://www.redfin.com/MA/West-Roxbury/35-Glenellen-Rd-02132/home/9219361,MLS PIN,72335403,N,Y,42.2691327,-71.1633022
PAST SALE,,Single Family Residential,639 Weld St,West Roxbury,MA,02132,450000,3,1.5,,1064,6157,1950,,423,,,,,http://www.redfin.com/MA/West-Roxbury/639-Weld-St-02132/home/9206848,,,N,Y,42.2917865,-71.1602852
PAST SALE,June-29-2018,Single Family Residential,39 Miami Ave,Boston,MA,02132,640000,3,2.0,West Roxbury,1493,8902,1925,37,429,,Sold,,,http://www.redfin.com/MA/West-Roxbury/39-Miami-Ave-02132/home/9217146,MLS PIN,72307437,N,Y,42.2748633,-71.1644162
PAST SALE,June-29-2018,Single Family Residential,170 MT VERNON,Boston,MA,02132,785000,4,2.5,HIGHLAND,1868,11000,1942,37,420,,Sold,,,http://www.redfin.com/MA/West-Roxbury/170-Mt-Vernon-St-02132/home/9210926,MLS PIN,72322627,N,Y,42.2870308,-71.1629309
PAST SALE,June-28-2018,Single Family Residential,28 Goethe St,Boston,MA,02132,900000,4,2.5,Boston Latin School and Roxbury Latin School district,3300,12288,2004,38,273,,Sold,,,http://www.redfin.com/MA/West-Roxbury/28-Goethe-St-02132/home/11737155,MLS PIN,72292713,N,Y,42.2563288,-71.1577787
PAST SALE,July-25-2018,Single Family Residential,11 Porter Ter,Boston,MA,02132,665000,3,1.0,West Roxbury/ Highlands,1625,4960,1927,11,409,,Sold,,,http://www.redfin.com/MA/West-Roxbury/11-Porter-Ter-02132/home/9209250,MLS PIN,72340859,N,Y,42.2856948,-71.1600995
PAST SALE,July-30-2018,Single Family Residential,41 Bronx Rd,Boston,MA,02132,485000,3,2.0,West Roxbury,968,4800,1945,6,501,,Sold,,,http://www.redfin.com/MA/West-Roxbury/41-Bronx-Rd-02132/home/9217599,MLS PIN,72326853,N,Y,42.2737761,-71.1623391
PAST SALE,July-30-2018,Single Family Residential,7 Barclay Rd,Boston,MA,02132,617000,3,1.5,West Roxbury,1392,3610,1930,6,443,,Sold,,,http://www.redfin.com/MA/West-Roxbury/7-Barclay-Rd-02132/home/11836482,MLS PIN,72329954,N,Y,42.2842462,-71.1625712
PAST SALE,July-30-2018,Townhouse,865 Lagrange St #7,Boston,MA,02132,585000,2,2.5,West Roxbury,1363,1363,2012,6,429,245,Sold,,,http://www.redfin.com/MA/Boston/865-Lagrange-St-02132/unit-7/home/40344095,MLS PIN,72328117,N,Y,42.2935054,-71.1702106
PAST SALE,August-1-2018,Single Family Residential,138 Mount Vernon St,Boston,MA,02132,1180000,4,3.5,Highland,2747,7535,1890,4,430,,Sold,,,http://www.redfin.com/MA/West-Roxbury/138-Mt-Vernon-St-02132/home/9210939,MLS PIN,72303354,N,Y,42.2861882,-71.1619098
PAST SALE,July-31-2018,Single Family Residential,27 Churchill Rd,Boston,MA,02132,680000,3,1.5,West Roxbury,1472,4812,1930,5,462,,Sold,,,http://www.redfin.com/MA/West-Roxbury/27-Churchill-Rd-02132/home/9214299,MLS PIN,72307867,N,Y,42.2776613,-71.1552723
PAST SALE,August-2-2018,Single Family Residential,40 Constance Rd,Boston,MA,02132,955000,5,3.5,West Roxbury,4000,11000,2012,3,239,,Sold,,,http://www.redfin.com/MA/Boston/40-Constance-Rd-02132/home/40229259,MLS PIN,72328733,N,Y,42.2750786,-71.1648052
PAST SALE,,Condo/Co-op,8-10 Graham Ter #2,West Roxbury,MA,02132,532000,2,1.0,,1353,,1920,,393,,,,,http://www.redfin.com/MA/West-Roxbury/8-10-Graham-Ter-02132/unit-2/home/40353015,,,N,Y,42.287151,-71.154856
PAST SALE,July-11-2018,Townhouse,99 Anderer Ln #1,Boston,MA,02132,560000,2,1.5,West Roxbury,1540,1780,1989,25,364,431,Sold,,,http://www.redfin.com/MA/Boston/99-Anderer-Ln-02132/unit-1/home/9200936,MLS PIN,72328357,N,Y,42.292756,-71.1696273
PAST SALE,August-3-2018,Single Family Residential,53 Rockland St,Boston,MA,02132,500000,5,2.0,West Roxbury,1878,13500,1900,2,266,,Sold,,,http://www.redfin.com/MA/West-Roxbury/53-Rockland-St-02132/home/9221203,MLS PIN,72230964,N,Y,42.2573455,-71.1582893
PAST SALE,June-7-2018,Condo/Co-op,42 Fairview St #42,Boston,MA,02131,457000,3,1.0,Roslindale,1048,,1894,59,436,200,Sold,,,http://www.redfin.com/MA/Boston/42-Fairview-St-02131/unit-42/home/145518571,MLS PIN,72316334,N,Y,42.2904088,-71.1289996
PAST SALE,,Single Family Residential,15 Burrwood Rd,West Roxbury,MA,02132,679000,3,1.5,,1224,5000,1945,,555,,,,,http://www.redfin.com/MA/West-Roxbury/15-Burrwood-Rd-02132/home/11507402,,,N,Y,42.2937764,-71.1424611
PAST SALE,May-11-2018,Single Family Residential,79 Running Brook Rd,Boston,MA,02132,530000,3,1.5,West Roxbury,1488,5401,1963,86,356,,Sold,,,http://www.redfin.com/MA/West-Roxbury/79-Running-Brook-Rd-02132/home/9219503,MLS PIN,72279680,N,Y,42.2636056,-71.1524408
PAST SALE,,Multi-Family (2-4 Unit),135 Russett Rd,West Roxbury,MA,02132,810000,6,2.0,,2653,5500,1925,,305,,,,,http://www.redfin.com/MA/West-Roxbury/135-Russett-Rd-02132/home/9203051,,,N,Y,42.2924603,-71.1515589
PAST SALE,May-17-2018,Condo/Co-op,73 Bradfield Ave #1,Boston,MA,02131,620000,2,2.0,Roslindale,1400,5491,1910,80,443,195,Sold,,,http://www.redfin.com/MA/Roslindale/73-Bradfield-Ave-02131/unit-1/home/145283487,MLS PIN,72305031,N,Y,42.2900012,-71.1403723
PAST SALE,June-15-2018,Condo/Co-op,98 Wellsmere Rd #98,Boston,MA,02131,512500,3,1.0,Roslindale,1899,1899,1920,51,270,375,Sold,,,http://www.redfin.com/MA/Boston/98-Wellsmere-Rd-02131/unit-98/home/113228160,MLS PIN,72246823,N,Y,42.2791676,-71.1332139
PAST SALE,May-21-2018,Single Family Residential,11 Mendelssohn St,Boston,MA,02131,800000,3,1.5,Roslindale,1672,11616,1924,76,478,,Sold,,,http://www.redfin.com/MA/Roslindale/11-Mendelssohn-St-02131/home/11734626,MLS PIN,72306270,N,Y,42.2782241,-71.138237
PAST SALE,May-22-2018,Single Family Residential,86 Manthorne Rd,Boston,MA,02132,752000,4,1.5,West Roxbury,1578,5000,1925,75,477,,Sold,,,http://www.redfin.com/MA/West-Roxbury/86-Manthorne-Rd-02132/home/9203981,MLS PIN,72301744,N,Y,42.2898828,-71.1521971
PAST SALE,,Multi-Family (2-4 Unit),214 Park St,West Roxbury,MA,02132,630000,4,2.0,,2934,6183,1895,,215,,,,,http://www.redfin.com/MA/West-Roxbury/214-Park-St-02132/home/11836457,,,N,Y,42.2825877,-71.1510019
PAST SALE,,Single Family Residential,14 Greenbrook Rd,Hyde Park,MA,02136,410000,4,1.5,,1548,6978,1960,,265,,,,,http://www.redfin.com/MA/Hyde-Park/14-Greenbrook-Rd-02136/home/9129236,,,N,Y,42.2582281,-71.1273749
PAST SALE,May-29-2018,Condo/Co-op,818 South St Unit 2R,Boston,MA,02131,415000,2,1.0,Boston,842,842,1920,68,493,364,Sold,,,http://www.redfin.com/MA/Boston/818-South-St-02131/unit-2R/home/9300632,MLS PIN,72303994,N,Y,42.2880587,-71.1316067
PAST SALE,May-30-2018,Condo/Co-op,6 Atherton Unit 2R,Boston,MA,02131,435000,2,1.0,Roslindale,966,,1930,67,450,231,Sold,,,http://www.redfin.com/MA/Roslindale/6-Atherton-Ave-02131/unit-2R/home/12441464,MLS PIN,72302453,N,Y,42.2841523,-71.1301369
PAST SALE,June-28-2018,Multi-Family (2-4 Unit),29 Penfield St,Boston,MA,02131,840000,8,3.0,Roslindale,2534,4894,1900,38,331,,Sold,,,http://www.redfin.com/MA/Roslindale/29-Penfield-St-02131/home/9171735,MLS PIN,72324364,N,Y,42.285514,-71.1332238
PAST SALE,June-15-2018,Single Family Residential,20 Willet St,Boston,MA,02132,798000,5,3.5,West Roxbury,2717,6000,2007,51,294,,Sold,,,http://www.redfin.com/MA/Boston/20-Willet-St-02132/home/21621821,MLS PIN,72315608,N,Y,42.2702885,-71.151673
PAST SALE,,Condo/Co-op,128 Tyndale St,Boston,MA,02131,454000,2,1.0,,846,,1925,,537,,,,,http://www.redfin.com/MA/Boston/128-Tyndale-St-02131/home/9300562,,,N,Y,42.2870568,-71.1429844
PAST SALE,July-12-2018,Multi-Family (2-4 Unit),22-24 Sparrow St,Boston,MA,02132,816000,4,3.0,West Roxbury,2392,8540,1950,24,341,,Sold,,,http://www.redfin.com/MA/Boston/24-Sparrow-St-02132/home/139964623,MLS PIN,72313700,N,Y,42.2737626,-71.1499174
PAST SALE,,Multi-Family (2-4 Unit),996 South St,Roslindale,MA,02131,775000,8,2.0,,3116,5068,1907,,249,,,,,http://www.redfin.com/MA/Roslindale/996-South-St-02131/home/9171512,,,N,Y,42.2874393,-71.1399545
PAST SALE,June-22-2018,Single Family Residential,65 Averton St,Boston,MA,02131,677500,3,2.0,Central Roz,1601,3752,1901,44,423,,Sold,,,http://www.redfin.com/MA/Roslindale/65-Averton-St-02131/home/9172805,MLS PIN,72318843,N,Y,42.2824817,-71.1367632
PAST SALE,June-21-2018,Single Family Residential,1 Greenbrook Rd,Boston,MA,02136,370000,2,1.0,Golf Course Area,850,5358,1960,45,435,,Sold,,,http://www.redfin.com/MA/Hyde-Park/1-Greenbrook-Rd-02136/home/9129266,MLS PIN,72316995,N,Y,42.2584658,-71.1265858
PAST SALE,June-22-2018,Single Family Residential,181 Beech St,Boston,MA,02131,850000,5,2.5,West Roxbury Parkway,2930,5465,1905,44,290,,Sold,,,http://www.redfin.com/MA/Roslindale/181-Beech-St-02131/home/9174347,MLS PIN,72303475,N,Y,42.2828297,-71.1445499
PAST SALE,,Single Family Residential,547 Poplar St,Boston,MA,02131,386000,2,1.5,,1151,4478,1940,,335,,,,,http://www.redfin.com/MA/Boston/547-Poplar-St-02131/home/9181085,,,N,Y,42.2718487,-71.1320169
PAST SALE,June-22-2018,Single Family Residential,160 Church,Boston,MA,02132,760000,3,2.5,West Roxbury,1558,5000,1920,44,488,,Sold,,,http://www.redfin.com/MA/West-Roxbury/160-Church-St-02132/home/9202793,MLS PIN,72307365,N,Y,42.2937005,-71.1498879
PAST SALE,June-15-2018,Single Family Residential,69 Buchanan Rd,Boston,MA,02132,770000,4,2.5,West Roxbury,2045,6400,1957,51,377,,Sold,,,http://www.redfin.com/MA/West-Roxbury/69-Buchanan-Rd-02132/home/9167598,MLS PIN,72308755,N,Y,42.2951746,-71.1380049
PAST SALE,May-15-2018,Multi-Family (5+ Unit),45-47 Clement Ave,Boston,MA,02132,1610000,12,6.0,West Roxbury,4686,14890,1899,82,344,,Sold,,,http://www.redfin.com/MA/Boston/45-Clement-Ave-02132/home/9206566,MLS PIN,72289533,N,Y,42.2854177,-71.1496086
PAST SALE,July-16-2018,Single Family Residential,17 Thomas St,Dedham,MA,02026,499000,4,2.0,Dedham,1800,7815,1966,20,277,,Sold,,,http://www.redfin.com/MA/Dedham/17-Thomas-St-02026/home/8853031,MLS PIN,72319566,N,Y,42.2561672,-71.1521739
PAST SALE,June-27-2018,Single Family Residential,61 Russett Rd,Boston,MA,02132,970000,4,3.0,West Roxbury,2400,9110,1925,39,404,,Sold,,,http://www.redfin.com/MA/West-Roxbury/61-Russett-Rd-02132/home/9203244,MLS PIN,72315401,N,Y,42.290055,-71.1496558
PAST SALE,June-27-2018,Condo/Co-op,80 Aldrich St #3,Boston,MA,02131,385000,2,1.0,Roslindale,1093,1093,1905,39,352,205,Sold,,,http://www.redfin.com/MA/Boston/80-Aldrich-St-02131/unit-3/home/9318910,MLS PIN,72320206,N,Y,42.2839752,-71.1414339
